index_counter,name,latitude,longitude,region,auth_area,elevation
0,Carlisle Airport,54.9375,-2.8092,North West,Cumbria,50
1,Liverpool John Lennon Airport,53.3336,-2.85,North West,Merseyside,22
2,Scatsta,60.4322,-1.2992,Orkney and Shetland,Shetland Islands,25
3,Kinloss,57.6494,-3.5606,Eastern Scottish Highlands,Moray,7
4,Lossiemouth,57.712,-3.322,Eastern Scottish Highlands,Moray,6
5,Wick John O Groats Airport,58.454,-3.089,Northern Scottish Highlands,Highland,36
6,Braemar,57.006,-3.397,Eastern Scottish Highlands,Aberdeenshire,339
7,Baltasound,60.749,-0.854,Orkney and Shetland,Shetland Islands,15
8,Lerwick (S. Screen),60.139,-1.183,Orkney and Shetland,Shetland Islands,82
9,Fair Isle,59.527,-1.628,Orkney and Shetland,Shetland Islands,57
10,Foula,60.111,-2.063,Orkney and Shetland,Shetland Islands,22
11,Aultbea,57.859,-5.636,Northern Scottish Highlands,Highland,11
12,Skye/Lusa,57.257,-5.809,Northern Scottish Highlands,Highland,18
13,Altnaharra Saws,58.288,-4.442,Northern Scottish Highlands,Highland,81
14,Tulloch Bridge,56.867,-4.708,Northern Scottish Highlands,Highland,237
15,Dalwhinnie,56.933,-4.233,Northern Scottish Highlands,Highland,351
16,Killowen,54.067,-6.183,Northern Ireland,County Down,4
17,Langdon Bay,51.133,1.348,South East,Kent,117
18,Scilly St Marys,49.913,-6.301,South West,Isles of Scilly,31
19,Cardinham,50.502,-4.667,South West,Cornwall,200
20,Isle Of Portland,50.522,-2.454,South West,Dorset,52
21,Southampton W.C.,50.901,-1.403,South East,Southampton,19
22,Shoreham,50.836,-0.292,South East,West Sussex,13
23,Jersey,49.2079,-2.1955,South West,Jersey,84
24,Ballykelly,55.057,-7.008,Northern Ireland,County Londonderry,4
25,Lough Fea,54.721,-6.814,Northern Ireland,County Londonderry,225
26,Portglenone Samos,54.865,-6.457,Northern Ireland,County Antrim,64
27,Ballypatrick Forest,55.181,-6.153,Northern Ireland,County Antrim,156
28,Larne,54.852,-5.83,Northern Ireland,County Antrim,43
29,Valentia Observatory,51.933,-10.25,Republic of Ireland,Ireland,25
30,Monks Wood,52.4,-0.233,Eastern England,Cambridgeshire,41
31,Wisley,51.317,-0.467,South East,Surrey,38
32,North Wyke,50.767,-3.9,South West,Devon,177
33,Helens Bay,54.667,-5.75,Northern Ireland,County Down,43
34,Keele,52.99,-2.27,West Midlands,Staffordshire,178
35,Shobdon Saws,52.242,-2.885,West Midlands,Herefordshire,99
36,Hereford,52.083,-2.8,West Midlands,Herefordshire,75
37,Coleshill,52.48,-1.689,West Midlands,Warwickshire,96
38,Bedford,52.225,-0.464,Eastern England,Bedford,85
39,Pembrey Sands,51.713,-4.368,Wales,Carmarthenshire,3
40,Little Rissington (Esaws),51.86,-1.692,South West,Gloucestershire,210
41,High Wycombe,51.68,-0.802,South East,Buckinghamshire,204
42,Northwood,51.6169,-0.4,Eastern England,Hertfordshire,113
43,Andrewsfield,51.896,0.453,Eastern England,Essex,87
44,St-Athan,51.405,-3.44,Wales,Vale of Glamorgan,49
45,Lyneham,51.5031,-1.9924,South West,Wiltshire,145
46,Farnborough,51.279,-0.772,South East,Hampshire,72
47,Dundrennan,54.803,-4.008,Scottish Border,Dumfries and Galloway,113
48,Drumalbin,55.627,-3.735,Western Scotland,South Lanarkshire,245
49,Eskdalemuir,55.311,-3.206,Scottish Border,Dumfries and Galloway,242
50,Edinburgh/Gogarbank,55.928,-3.343,Scottish Border,Edinburgh,57
51,Warcop,54.572,-2.413,North West,Cumbria,227
52,Redesdale Camp,55.285,-2.279,North East,Northumberland,211
53,Albemarle,55.02,-1.88,North East,Northumberland,146
54,Leeming,54.296,-1.53,Yorkshire & Humber,North Yorkshire,32
55,Dishforth Airfield,54.134,-1.414,Yorkshire & Humber,North Yorkshire,33
56,Linton On Ouse,54.045,-1.25,Yorkshire & Humber,North Yorkshire,14
57,Llanbedr,52.802,-4.124,Wales,Gwynedd,9
58,Cottesmore,52.727,-0.654,East Midlands,Rutland,138
59,Wittering,52.6111,-0.459,Eastern England,Peterborough,73
60,Marham,52.651,0.569,Eastern England,Norfolk,21
61,Howwood,55.8062,-4.57112,Western Scotland,Renfrewshire,39
62,Liverpool,53.4113,-2.9887,North West,Merseyside,19
63,Torquay,50.4614,-3.5241,South West,Torbay,4
64,Cowes,50.7623,-1.2991,South East,Isle of Wight,22
65,Ilfracombe,51.2047,-4.1256,South West,Devon,28
66,Pembroke,51.6731,-4.9084,Wales,Pembrokeshire,9
67,Perth,56.3951,-3.4294,Central Scotland,Perth and Kinross,3
68,St. Ives,50.2113,-5.4813,South West,Cornwall,24
69,Aylesbury,51.8152,-0.8069,South East,Buckinghamshire,78
70,Lancaster,54.0464,-2.7993,North West,Lancashire,19
71,Stranraer,54.9033,-5.0228,Scottish Border,Dumfries and Galloway,7
72,Enniskillen,54.3446,-7.6313,Northern Ireland,County Fermanagh,52
73,Manchester,53.479,-2.2465,North West,Greater Manchester,36
74,Nottingham,52.9545,-1.1565,East Midlands,Nottingham,61
75,Plymouth,50.3713,-4.1348,South West,Plymouth,15
76,Bath,51.3754,-2.3585,South West,Bath and North East Somerset,50
77,Colchester,51.8955,0.8936,Eastern England,Essex,4
78,Corby,52.4902,-0.6822,East Midlands,Northamptonshire,102
79,Dunfermline,56.0718,-3.4507,Central Scotland,Fife,93
80,Gillingham (Kent),51.3858,0.5531,South East,Medway,40
81,Greenock,55.9565,-4.7707,Western Scotland,Inverclyde,19
82,Harlow,51.7674,0.0894,Eastern England,Essex,69
83,Ipswich,52.0563,1.1499,Eastern England,Suffolk,6
84,Middlesbrough,54.5741,-1.2334,North East,Middlesbrough,6
85,Newport,51.5837,-2.9963,Wales,Newport,46
86,Poole,50.7139,-1.9866,South West,Poole,2
87,Scunthorpe,53.5884,-0.6528,Yorkshire & Humber,North Lincolnshire,41
88,St. Albans,51.7529,-0.3357,Eastern England,Hertfordshire,113
89,Stafford,52.8064,-2.1192,West Midlands,Staffordshire,76
90,Whitehaven,54.5496,-3.5879,North West,Cumbria,3
91,Aberfeldy,56.6218,-3.8656,Central Scotland,Perth and Kinross,89
92,Londonderry (Derry),54.9952,-7.3227,Northern Ireland,County Londonderry,35
93,Montrose,56.707,-2.4646,Central Scotland,Angus,1
94,Grangemouth,56.0189,-3.7184,Central Scotland,Falkirk,3
95,Granton,55.9828,-3.232,Scottish Border,Edinburgh,9
96,Haslingden,53.7052,-2.3275,North West,Lancashire,228
97,Hayes,51.5,-0.42,South East,Greater London,32
98,Heysham,54.0418,-2.8931,North West,Lancashire,29
99,Immingham,53.6138,-0.2143,Yorkshire & Humber,North East Lincolnshire,5
100,Nottingham,52.92,-1.08,East Midlands,Nottinghamshire,42
101,Finnart,56.67,-4.42,Central Scotland,Perth and Kinross,277
102,Fleetwood,53.9165,-3.0343,North West,Lancashire,4
103,Brightlingsea,51.8157,1.0231,Eastern England,Essex,17
104,Truro,50.2627,-5.05,South West,Cornwall,3
105,Lochaline,56.54,-5.79,Northern Scottish Highlands,Highland,66
106,Seaham,54.8402,-1.3359,North East,Durham,27
107,Tarbert,55.87,-5.42,Western Scotland,Argyll and Bute,144
108,Teesport,54.59,-1.15,North East,Redcar and Cleveland,7
109,Cheadle (Staffordshire),52.9846,-1.985,West Midlands,Staffordshire,162
110,Dorchester,50.7138,-2.4381,South West,Dorset,71
111,Newton Stewart,54.9602,-4.4819,Scottish Border,Dumfries and Galloway,14
112,Salcombe,50.237,-3.7686,South West,Devon,45
113,Windsor,51.4813,-0.612,South East,Windsor and Maidenhead,23
114,Abersoch,52.8242,-4.5042,Wales,Gwynedd,9
115,Portree,57.4127,-6.1949,Northern Scottish Highlands,Highland,5
116,King's Lynn,52.7561,0.4019,Eastern England,Norfolk,5
117,Kirkcaldy,56.1147,-3.1517,Central Scotland,Fife,6
118,Woking,51.3156,-0.5594,South East,Surrey,37
119,Ashford,51.146,0.8767,South East,Kent,45
120,Kingston Upon Thames,51.4119,-0.2991,South East,Greater London,4
121,Maidenhead,51.522,-0.7204,South East,Windsor and Maidenhead,27
122,Uckfield,50.9659,0.0975,South East,East Sussex,37
123,Hawick,55.427,-2.7795,Scottish Border,Scottish Borders,98
124,Alloa,56.1141,-3.7905,Central Scotland,Clackmannanshire,12
125,Amersham,51.6751,-0.6057,South East,Buckinghamshire,150
126,Castleford,53.7232,-1.3444,Yorkshire & Humber,West Yorkshire,19
127,Church Stretton,52.5404,-2.8021,West Midlands,Shropshire,189
128,Dunbar,56.0021,-2.5152,Scottish Border,East Lothian,20
129,Eyemouth,55.869,-2.0895,Scottish Border,Scottish Borders,14
130,Fort Augustus,57.1441,-4.6798,Northern Scottish Highlands,Highland,23
131,Glencoe,56.6848,-5.0993,Northern Scottish Highlands,Highland,10
132,Henley On Thames,51.5353,-0.9014,South East,Oxfordshire,35
133,Hinckley,52.5451,-1.3752,East Midlands,Leicestershire,116
134,Ludlow,52.3674,-2.7125,West Midlands,Shropshire,100
135,Mansfield,53.1469,-1.1971,East Midlands,Nottinghamshire,110
136,Peebles,55.6531,-3.1922,Scottish Border,Scottish Borders,162
137,Rampton,53.2985,-0.7998,East Midlands,Nottinghamshire,8
138,Rotherham,53.4294,-1.3575,Yorkshire & Humber,South Yorkshire,24
139,Stenhousemuir,56.0289,-3.8094,Central Scotland,Falkirk,25
140,Sutton Coldfield,52.5701,-1.8226,West Midlands,West Midlands Conurbation,142
141,Walsall,52.5859,-1.9815,West Midlands,West Midlands Conurbation,121
142,Warminster,51.2042,-2.1797,South West,Wiltshire,112
143,Widnes,53.3608,-2.7322,North West,Halton,9
144,Cromer,52.9311,1.3036,Eastern England,Norfolk,15
145,Haverhill,52.0869,0.4328,Eastern England,Suffolk,72
146,Ruthin,53.1145,-3.3095,Wales,Denbighshire,71
147,Formby,53.558,-3.0674,North West,Merseyside,8
148,Llandovery,51.9964,-3.8007,Wales,Carmarthenshire,65
149,Okehampton,50.7378,-4.0031,South West,Devon,155
150,Pickering,54.2437,-0.7759,Yorkshire & Humber,North Yorkshire,34
151,Wembley Stadium,51.55602,-0.27956,South East,Greater London,36
152,Dungeness B,50.9134,0.9597,South East,Kent,5
153,Sheffield Cdl,53.383,-1.483,Yorkshire & Humber,South Yorkshire,131
154,Northamptonmoulton Park,52.273,-0.879,East Midlands,Northamptonshire,127
155,Altnahinch Filters,55.048,-6.254,Northern Ireland,County Antrim,213
156,Murlough,54.245,-5.83,Northern Ireland,County Down,12
157,London  Olympic Park North,51.542,-0.017,South East,Greater London,21
158,Sudeley Castle Gardens,51.9488,-1.9669,South West,Gloucestershire,100
159,Sullom Voe,60.4517,-1.3125,Orkney and Shetland,Shetland Islands,0
160,Suntrap,55.9264,-3.3223,Scottish Border,Edinburgh,57
161,Suton,52.549,1.0927,Eastern England,Norfolk,40
162,Swadlincote Ski Centre,52.7638,-1.5483,East Midlands,Leicestershire,113
163,Swinton (Greater Manchester),53.5119,-2.3398,North West,Greater Manchester,68
164,Tattenhoe,51.9964,-0.7845,South East,Milton Keynes,102
165,Taunton Racecourse,50.9842,-3.0851,South West,Somerset,51
166,Tees Bay,54.6567,-1.1436,North East,Redcar and Cleveland,0
167,Telford Wonderland,52.6709,-2.4352,West Midlands,Telford and Wrekin,130
168,Telscombe Youth Hostel,50.8084,-0.0118,South East,East Sussex,99
169,Temple,55.8943,-4.3358,Western Scotland,Glasgow,28
170,The Alnwick Garden,55.4136,-1.6982,North East,Northumberland,53
171,Burley Youth Hostel,50.8238,-1.6892,South East,Hampshire,65
172,Burnham-On-Crouch,51.6279,0.8162,Eastern England,Essex,6
173,Burton Latimer,52.3655,-0.6766,East Midlands,Northamptonshire,70
174,Buscot Park,51.6652,-1.6462,South East,Oxfordshire,99
175,Byker,54.9717,-1.5706,North East,Newcastle upon Tyne,51
176,Caistor,53.4972,-0.3138,East Midlands,Lincolnshire,88
177,Cambuslang,55.821,-4.1636,Western Scotland,South Lanarkshire,20
178,Camelford,50.6216,-4.6812,South West,Cornwall,219
179,Campbeltown Airport,55.4445,-5.6957,Western Scotland,Argyll and Bute,14
180,Canford Heath,50.7488,-1.9721,South West,Poole,10
181,Cardigan,52.0834,-4.6597,Wales,Ceredigion,10
182,Learnie Red Rock Mountain Bike Trail Centre,57.6238,-4.1154,Northern Scottish Highlands,Highland,146
183,Lecht Ski Centre Low Level,57.215,-3.2662,Eastern Scottish Highlands,Moray,559
184,Lees,53.5386,-2.0681,North West,Greater Manchester,190
185,Leicester Racecourse,52.6008,-1.0939,East Midlands,Leicestershire,87
186,Leiston,52.2086,1.5759,Eastern England,Suffolk,14
187,Lemington,54.9807,-1.7196,North East,Newcastle upon Tyne,41
188,Leonardslee Gardens,51.0193,-0.2534,South East,West Sussex,58
189,Lerwick,60.1536,-1.1435,Orkney and Shetland,Shetland Islands,18
190,Leslie,56.2005,-3.2129,Central Scotland,Fife,124
191,Lesmahagow,55.6376,-3.8852,Western Scotland,South Lanarkshire,169
192,Lessingham,52.7996,1.5521,Eastern England,Norfolk,0
193,Lewes,50.8734,0.0104,South East,East Sussex,32
194,Liberton,55.9132,-3.1586,Scottish Border,Edinburgh,106
195,Lifton,50.6451,-4.2816,South West,Devon,84
196,Lilleshall National Sports Centre,52.7321,-2.3896,West Midlands,Telford and Wrekin,92
197,Limehurst,53.5101,-2.103,North West,Greater Manchester,127
198,Linford Wood,52.0553,-0.7703,South East,Milton Keynes,102
199,Linlithgow,55.974,-3.6014,Scottish Border,West Lothian,72
200,Linton Youth Hostel,54.0563,-1.9981,Yorkshire & Humber,North Yorkshire,222
201,Little Horwood,51.9687,-0.8485,South East,Buckinghamshire,119
202,Littleport,52.4563,0.309,Eastern England,Cambridgeshire,6
203,Litton Cheney Youth Hostel,50.7073,-2.6367,South West,Dorset,48
204,Liverpool Youth Hostel,53.3811,-2.9718,North West,Merseyside,10
205,Llandaff,51.4923,-3.2132,Wales,Cardiff,19
206,Llandudno,53.3238,-3.8263,Wales,Conwy,1
207,The Gleneagles Hotel,56.2736,-3.7597,Central Scotland,Perth and Kinross,149
208,The Oxfordshire Golf Club,51.7354,-1.0017,South East,Oxfordshire,78
209,Durham I.C.G.,54.8505,-1.5629,North East,Durham,14
210,Thingwall,53.354,-3.0905,North West,Merseyside,67
211,Thirsk Racecourse,54.232,-1.3606,Yorkshire & Humber,North Yorkshire,33
212,Thornhill (Southampton),50.9084,-1.3289,South East,Southampton,47
213,Thorpe Bay,51.5333,0.7628,Eastern England,Southend-on-Sea,6
214,Tillicoultry,56.154,-3.7388,Central Scotland,Clackmannanshire,22
215,Timperley,53.3965,-2.3178,North West,Greater Manchester,30
216,Tong Street,53.7682,-1.7096,Yorkshire & Humber,West Yorkshire,210
217,Carn An Righ,56.8779,-3.5866,Central Scotland,Perth and Kinross,1029
218,Carn Gorm,56.6221,-4.2223,Central Scotland,Perth and Kinross,1029
219,Castle Combe Motor Racing Circuit,51.4874,-2.2058,South West,Wiltshire,124
220,Castle Kennedy Gardens,54.907,-4.9477,Scottish Border,Dumfries and Galloway,32
221,Castlederg,54.7063,-7.5909,Northern Ireland,County Tyrone,45
222,Cathcart,55.8154,-4.2527,Western Scotland,Glasgow,32
223,Catisfield,50.8528,-1.2233,South East,Hampshire,27
224,Cc2000 Cross Hands,51.775,-4.8083,Wales,Pembrokeshire,91
225,Llandudno Ski & Snowboard Centre,53.3286,-3.8371,Wales,Conwy,73
226,Llanfair Caereinion,52.6451,-3.325,Wales,Powys,139
227,Llangybi,52.1594,-4.0341,Wales,Ceredigion,137
228,Llanishen,51.5291,-3.1892,Wales,Cardiff,48
229,Lledr Valley Youth Hostel,53.0658,-3.8654,Wales,Conwy,162
230,Loch A' Tuath,58.239,-6.2753,Northern Scottish Highlands,Na h-Eileanan Siar,0
231,Loch Carron,57.3829,-5.49,Northern Scottish Highlands,Highland,0
232,Loch Duich,57.242,-5.4777,Northern Scottish Highlands,Highland,0
233,Loch Eil,56.8483,-5.2372,Northern Scottish Highlands,Highland,0
234,Loch Goil,56.1284,-4.8945,Western Scotland,Argyll and Bute,0
235,Loch Long,56.1351,-4.8214,Western Scotland,Argyll and Bute,0
236,Loch Nevis,56.9894,-5.6674,Northern Scottish Highlands,Highland,0
237,Loch Sunart,56.6972,-5.7766,Northern Scottish Highlands,Highland,0
238,Lochgilphead,56.0383,-5.4311,Western Scotland,Argyll and Bute,5
239,Lochmaben,55.1291,-3.4404,Scottish Border,Dumfries and Galloway,53
240,Lochnagar,56.9571,-3.2442,Eastern Scottish Highlands,Aberdeenshire,1155
241,Lochranza Youth Hostel,55.6989,-5.2828,Western Scotland,North Ayrshire,22
242,Lochwinnoch,55.7934,-4.6266,Western Scotland,Renfrewshire,31
243,Loddon,52.5321,1.4849,Eastern England,Norfolk,9
244,Lode Heath,52.4165,-1.7823,West Midlands,West Midlands Conurbation,129
245,London Heathrow Airport,51.473,-0.4487,South East,Greater London,26
246,Long Melford,52.0739,0.718,Eastern England,Suffolk,34
247,Long Thurlow,52.275,0.9499,Eastern England,Suffolk,67
248,Longbenton,55.0123,-1.5821,North East,North Tyneside,56
249,Tottenhill,52.6703,0.4297,Eastern England,Norfolk,9
250,Tredegar House Newport,51.5612,-3.0256,Wales,Newport,9
251,Treherbert,51.6746,-3.5359,Wales,Rhondda Cynon Taff,183
252,Trenear,50.1379,-5.246,South West,Cornwall,120
253,Tywyn,52.5867,-4.086,Wales,Gwynedd,9
254,Unsworth,53.5624,-2.2765,North West,Greater Manchester,81
255,Upton House,52.1064,-1.4634,West Midlands,Warwickshire,202
256,Usk,51.7049,-2.9022,Wales,Monmouthshire,43
257,Chester-Le-Street,54.8593,-1.5691,North East,Durham,14
258,Chicheley,52.1022,-0.682,South East,Milton Keynes,76
259,Chichester,50.8371,-0.7734,South East,West Sussex,14
260,Chirk,52.9326,-3.0566,Wales,Wrexham,106
261,Snowtrax Alpine Activity Centre,50.791,-1.816,South West,Dorset,10
262,Cinderhill,52.9829,-1.1995,East Midlands,Nottingham,56
263,Clackmannan,56.1077,-3.7516,Central Scotland,Clackmannanshire,39
264,Longfleet,50.7236,-1.9777,South West,Poole,9
265,Longport,53.0441,-2.2081,West Midlands,Stoke-on-Trent,131
266,Longstone,55.9206,-3.2736,Scottish Border,Edinburgh,70
267,Longton,52.9873,-2.1317,West Midlands,Stoke-on-Trent,150
268,Longtown,55.0092,-2.9705,North West,Cumbria,12
269,Lord's Marylebone C.C.,51.5294,-0.1728,South East,Greater London,40
270,Lostock Junction,53.5711,-2.4957,North West,Greater Manchester,102
271,Loughborough,52.7718,-1.2046,East Midlands,Leicestershire,43
272,Low Moor,53.7537,-1.7563,Yorkshire & Humber,West Yorkshire,159
273,Low Team,54.9545,-1.6271,North East,Gateshead,8
274,Lutterworth,52.4556,-1.1976,East Midlands,Leicestershire,121
275,Lydden Motor Racing Circuit,51.1776,1.1977,South East,Kent,99
276,Lye,52.4582,-2.1161,West Midlands,West Midlands Conurbation,98
277,Lyme Hall,53.334,-2.0499,North West,Cheshire East,276
278,Lyme Regis,50.7247,-2.9353,South West,Dorset,35
279,Lyndon Green,52.4647,-1.7778,West Midlands,West Midlands Conurbation,95
280,Lynton,51.2292,-3.8389,South West,Devon,155
281,Maghera,54.8441,-6.6727,Northern Ireland,County Londonderry,71
282,Magheraveely,54.1968,-7.2848,Northern Ireland,County Fermanagh,66
283,Malpas,53.0188,-2.766,North West,Cheshire West and Chester,114
284,Malvern Hills Youth Hostel,52.0927,-2.3312,West Midlands,Worcestershire,142
285,Mam Sodhail,57.2814,-5.1188,Northern Scottish Highlands,Highland,1180
286,Mapperley,52.9853,-1.1285,East Midlands,Nottingham,109
287,Mapperley Park,52.9751,-1.1441,East Midlands,Nottingham,75
288,Mapperton,50.7876,-2.1347,South West,Dorset,40
289,Walcot,52.9002,-0.4248,East Midlands,Lincolnshire,39
290,Walmer Castle Garden,51.1927,1.3933,South East,Kent,29
291,Walmley,52.5387,-1.8026,West Midlands,West Midlands Conurbation,112
292,Watford F.C.,51.6488,-0.4001,Eastern England,Hertfordshire,69
293,Wedmore,51.2283,-2.8098,South West,Somerset,18
294,Welbourn,53.0751,-0.5572,East Midlands,Lincolnshire,31
295,Wentworth Club,51.393,-0.5964,South East,Surrey,45
296,West Grinstead,50.9779,-0.3232,South East,West Sussex,18
297,West Heath,52.3964,-1.9564,West Midlands,West Midlands Conurbation,172
298,Coalisland,54.5404,-6.6989,Northern Ireland,County Tyrone,31
299,Coleshill,52.4993,-1.705,West Midlands,Warwickshire,100
300,Compton,50.3895,-4.1279,South West,Plymouth,85
301,Conachair,57.8205,-8.5744,Northern Scottish Highlands,Na h-Eileanan Siar,430
302,Conival,58.1362,-4.8804,Northern Scottish Highlands,Highland,987
303,Consett,54.8517,-1.8315,North East,Durham,266
304,Conwy Youth Hostel,53.2785,-3.8418,Wales,Conwy,63
305,Copley,53.4871,-2.0406,North West,Greater Manchester,142
306,Corsham,51.431,-2.1883,South West,Wiltshire,96
307,Coseley,52.5476,-2.0729,West Midlands,West Midlands Conurbation,149
308,Coverack Youth Hostel,50.0225,-5.1005,South West,Cornwall,37
309,Coxlodge,55.0085,-1.6365,North East,Newcastle upon Tyne,78
310,Cradley (Herefordshire),52.1203,-2.4004,West Midlands,Herefordshire,100
311,Crail,56.2606,-2.6261,Central Scotland,Fife,30
312,Markinch,56.2036,-3.1303,Central Scotland,Fife,70
313,Marland,53.5991,-2.1892,North West,Greater Manchester,130
314,Marple,53.3971,-2.0602,North West,Greater Manchester,142
315,Martley,52.238,-2.3641,West Midlands,Worcestershire,88
316,Mattingley,51.3154,-0.9477,South East,Hampshire,65
317,Mauchline,55.5159,-4.3765,Western Scotland,East Ayrshire,145
318,Meall A' Bhuiridh,56.6121,-4.8486,Northern Scottish Highlands,Highland,1108
319,Meall Buidhe (Highland),57.0352,-5.5411,Northern Scottish Highlands,Highland,946
320,Meall Buidhe (Perth & Kinross),56.616,-4.4461,Central Scotland,Perth and Kinross,931
321,Meall Dearg,56.6818,-5.0043,Northern Scottish Highlands,Highland,951
322,Meall Garbh (1118m),56.5665,-4.2034,Central Scotland,Perth and Kinross,1118
323,Meall Nan Eun,56.5599,-4.939,Western Scotland,Argyll and Bute,926
324,Melrose,55.5986,-2.7204,Scottish Border,Scottish Borders,88
325,Mere Green,52.5867,-1.8192,West Midlands,West Midlands Conurbation,150
326,Mickfield,52.2125,1.1269,Eastern England,Suffolk,61
327,Middlesbrough F.C.,54.5777,-1.2126,North East,Middlesbrough,2
328,Middleton (Greater Manchester),53.5457,-2.2005,North West,Greater Manchester,77
329,Crossmaglen,54.0766,-6.6071,Northern Ireland,County Armagh,137
330,Cuckfield,51.0053,-0.1421,South East,West Sussex,95
331,Cudworth,53.5776,-1.4135,Yorkshire & Humber,South Yorkshire,70
332,Cullercoats,55.0315,-1.4384,North East,North Tyneside,31
333,Cwmcarn Forest Drive,51.6393,-3.1187,Wales,Caerphilly,128
334,Dalbeattie Mountain Bike Trail Centre,54.9228,-3.8155,Scottish Border,Dumfries and Galloway,14
335,Dale,51.7072,-5.164,Wales,Pembrokeshire,0
336,Middlewich,53.1923,-2.4424,North West,Cheshire East,30
337,Midhurst,50.9864,-0.7358,South East,West Sussex,31
338,Millennium Seed Bank Wakehurst Place,51.0709,-0.0909,South East,West Sussex,80
339,Minster,51.4204,0.8105,South East,Kent,30
340,Minworth,52.5275,-1.7711,West Midlands,West Midlands Conurbation,83
341,Mirfield,53.6799,-1.6952,Yorkshire & Humber,West Yorkshire,79
342,Monadh Mor,57.0278,-3.7524,Northern Scottish Highlands,Highland,1113
343,Monmore Green,52.5746,-2.1045,West Midlands,West Midlands Conurbation,140
344,Monmouth Youth Hostel,51.8184,-2.7221,Wales,Monmouthshire,33
345,Moor Side,53.7504,-1.7659,Yorkshire & Humber,West Yorkshire,161
346,Moray Monster Trails Mountain Bike Trail Centre,57.6067,-3.0921,Eastern Scottish Highlands,Moray,56
347,Morecambe,54.074,-2.8636,North West,Lancashire,3
348,Morpeth,55.1687,-1.6859,North East,Northumberland,28
349,Moseley (Nr Wolverhampton),52.5836,-2.0962,West Midlands,West Midlands Conurbation,137
350,Moseley Old Hall,52.6358,-2.1073,West Midlands,Staffordshire,120
351,Moss Nook,53.3651,-2.2464,North West,Greater Manchester,73
352,Moss Side,53.4534,-2.2396,North West,Greater Manchester,32
353,Motcombe,51.0254,-2.2133,South West,Dorset,90
354,Mouth Of The Severn,51.4604,-2.9537,South West,North Somerset,0
355,Mr. B's Amusements Southend-On-Sea,51.536,0.7396,Eastern England,Southend-on-Sea,4
356,Muirfield (Hon Company Of Edinburgh Golfers),56.0446,-2.8238,Scottish Border,East Lothian,20
357,Muirhead (Angus),56.497,-3.0684,Central Scotland,Angus,139
358,Darlaston Green,52.5759,-2.0326,West Midlands,West Midlands Conurbation,130
359,Darnall,53.3923,-1.4071,Yorkshire & Humber,South Yorkshire,57
360,Darsham,52.2739,1.549,Eastern England,Suffolk,16
361,Davenport,53.3882,-2.1505,North West,Greater Manchester,79
362,Dawlish,50.5818,-3.4632,South West,Devon,22
363,Debdale,53.465,-2.1617,North West,Greater Manchester,80
364,Deighton (North Yorkshire),54.4106,-1.4125,Yorkshire & Humber,North Yorkshire,75
365,Delamont Country Park,54.3784,-5.6794,Northern Ireland,County Down,16
366,Denny,56.0215,-3.9055,Central Scotland,Falkirk,45
367,Dewsbury Moor,53.6952,-1.6639,Yorkshire & Humber,West Yorkshire,48
368,Dirleton Castle Garden,56.0396,-2.7789,Scottish Border,East Lothian,31
369,Dorney Court,51.5005,-0.6695,South East,Buckinghamshire,21
370,Down House,51.3295,0.0487,South East,Greater London,139
371,Drayton (Portsmouth),50.8455,-1.0388,South East,Portsmouth,10
372,Driesh,56.8478,-3.1954,Central Scotland,Angus,947
373,Droitwich Spa,52.2683,-2.1493,West Midlands,Worcestershire,34
374,Mullach Na Dheiragain,57.2848,-5.1855,Northern Scottish Highlands,Highland,982
375,Mullach Nan Coirean,56.7518,-5.0679,Northern Scottish Highlands,Highland,939
376,Murrayfield (Edinburgh),55.9478,-3.2537,Scottish Border,Edinburgh,92
377,Nailsworth,51.6935,-2.2149,South West,Gloucestershire,74
378,Nairn,57.5866,-3.867,Northern Scottish Highlands,Highland,11
379,Nantwich,53.0669,-2.5227,North West,Cheshire East,32
380,Narberth,51.8,-4.7425,Wales,Pembrokeshire,95
381,National Botanic Garden Of Wales,51.8443,-4.1403,Wales,Carmarthenshire,54
382,Nevis Range Ski Centre Medium Level,56.8365,-4.972,Northern Scottish Highlands,Highland,650
383,New Brighton (West Yorkshire),53.7493,-1.6101,Yorkshire & Humber,West Yorkshire,140
384,New Milton,50.7568,-1.6665,South East,Hampshire,41
385,New Ollerton,53.2081,-1.0107,East Midlands,Nottinghamshire,45
386,New Pitsligo,57.5921,-2.1977,Eastern Scottish Highlands,Aberdeenshire,151
387,Newark-On-Trent,53.0747,-0.8034,East Midlands,Nottinghamshire,15
388,Newcastle International Airport,55.0353,-1.6913,North East,Newcastle upon Tyne,72
389,Newcastle Racecourse,55.0308,-1.614,North East,Newcastle upon Tyne,59
390,Newcastle Upon Tyne Youth Hostel,54.9915,-1.6035,North East,Newcastle upon Tyne,56
391,Newcastle Youth Hostel,54.2216,-5.883,Northern Ireland,County Down,7
392,Newcastle-Under-Lyme,53.0126,-2.2226,West Midlands,Staffordshire,128
393,Newent,51.9289,-2.4032,South West,Gloucestershire,40
394,Newgale,51.8506,-5.1279,Wales,Pembrokeshire,0
395,Newick Park,50.9471,0.0166,South East,East Sussex,27
396,Newnham Paddox Art Park,52.4455,-1.2899,West Midlands,Warwickshire,111
397,Winchester,51.0593,-1.3087,South East,Hampshire,33
398,Windsor Park,54.5845,-5.9553,Northern Ireland,County Antrim,7
399,Winkworth Arboretum,51.1645,-0.5781,South East,Surrey,98
400,Winsford Walled Garden (Halwill Junction),50.7819,-4.2005,South West,Devon,181
401,Witherslack,54.2521,-2.8749,North West,Cumbria,40
402,Withington (Gloucestershire),51.8363,-1.9458,South West,Gloucestershire,157
403,Wollaton,52.9517,-1.2139,East Midlands,Nottingham,48
404,Wolverton,52.0621,-0.8147,South East,Milton Keynes,78
405,Wood Green,51.6001,-0.1082,South East,Greater London,32
406,Woodhouse,53.3588,-1.3668,Yorkshire & Humber,South Yorkshire,90
407,Woodstock,51.8469,-1.3526,South East,Oxfordshire,94
408,Wooler Youth Hostel,55.5422,-2.0152,North East,Northumberland,135
409,Woolfold,53.6037,-2.327,North West,Greater Manchester,119
410,Wroxton Abbey,52.0694,-1.3938,South East,Oxfordshire,149
411,Duddenhoe End,52.0121,0.1249,Eastern England,Essex,120
412,Duddingston,55.9455,-3.1346,Scottish Border,Edinburgh,33
413,Dufton Youth Hostel,54.6173,-2.4826,North West,Cumbria,191
414,Dulverton,51.0392,-3.5484,South West,Somerset,138
415,Dungiven,54.9272,-6.9235,Northern Ireland,County Londonderry,81
416,Dunkeld,56.5683,-3.5857,Central Scotland,Perth and Kinross,55
417,Duns,55.7778,-2.3419,Scottish Border,Scottish Borders,131
418,Dursley,51.6784,-2.3491,South West,Gloucestershire,85
419,Dury Voe,60.338,-1.1157,Orkney and Shetland,Shetland Islands,0
420,East Stour,51.0034,-2.2841,South West,Dorset,80
421,Easterhouse,55.8646,-4.1125,Western Scotland,Glasgow,77
422,Eccleston,53.6464,-2.7241,North West,Lancashire,28
423,Edenthorpe,53.5512,-1.0688,Yorkshire & Humber,South Yorkshire,9
424,Edgbaston,52.4605,-1.9135,West Midlands,West Midlands Conurbation,143
425,Newport Bay,52.0342,-4.8676,Wales,Pembrokeshire,0
426,Newport Youth Hostel,52.0172,-4.8352,Wales,Pembrokeshire,23
427,Newry,54.1707,-6.3348,Northern Ireland,County Armagh,5
428,Newton Aycliffe,54.6159,-1.574,North East,Durham,89
429,Newtongrange,55.8657,-3.0647,Scottish Border,Midlothian Council,95
430,Ninebanks Youth Hostel,54.8568,-2.356,North East,Northumberland,317
431,Nitshill,55.8156,-4.3622,Western Scotland,Glasgow,37
432,Norbury Moor,53.3698,-2.121,North West,Greater Manchester,84
433,Norden,53.6262,-2.2199,North West,Greater Manchester,179
434,Normanton Spring,53.3557,-1.3905,Yorkshire & Humber,South Yorkshire,83
435,North Bragar,58.348,-6.626,Northern Scottish Highlands,Na h-Eileanan Siar,0
436,North Carlton,53.3561,-1.1125,East Midlands,Nottinghamshire,31
437,North Ronaldsay Firth,59.3286,-2.3882,Orkney and Shetland,Orkney Islands,0
438,North Tuddenham,52.6816,1.0167,Eastern England,Norfolk,38
439,Northend,51.6649,0.8379,Eastern England,Essex,22
440,Northwood (Stoke-On-Trent),53.0285,-2.1612,West Midlands,Stoke-on-Trent,159
441,Norton In The Moors,53.0619,-2.1558,West Midlands,Stoke-on-Trent,173
442,Norton Woodseats,53.3428,-1.4727,Yorkshire & Humber,South Yorkshire,156
443,Nottingham Racecourse,52.9444,-1.1026,East Midlands,Nottingham,21
444,Oakhurst Cottage Hambledon,51.1324,-0.6224,South East,Surrey,70
445,Ocean Beach Amusement Park Rhyl,53.3163,-3.5001,Wales,Denbighshire,1
446,Oldbury,52.5046,-2.0145,West Midlands,West Midlands Conurbation,150
447,Ellesmere,52.9064,-2.899,West Midlands,Shropshire,95
448,Ellesmere Park,53.491,-2.3408,North West,Greater Manchester,35
449,Epsom Downs Racecourse,51.307,-0.2518,South East,Surrey,137
450,Erdington,52.5207,-1.8389,West Midlands,West Midlands Conurbation,116
451,Esgair,51.9323,-4.3627,Wales,Carmarthenshire,103
452,Ewell Minnis,51.1437,1.2308,South East,Kent,132
453,Exeter International Airport,50.7354,-3.4201,South West,Devon,22
454,Exeter Racecourse,50.6387,-3.5542,South West,Devon,223
455,Eye (Peterborough),52.6123,-0.1862,Eastern England,Peterborough,5
456,Failsworth,53.5079,-2.163,North West,Greater Manchester,94
457,Far Royds,53.7811,-1.6008,Yorkshire & Humber,West Yorkshire,57
458,Farnborough Hall,52.1367,-1.3735,West Midlands,Warwickshire,134
459,Felling,54.9502,-1.5628,North East,Gateshead,74
460,Feltwell,52.486,0.5211,Eastern England,Norfolk,8
461,Orpington,51.3744,0.0958,South East,Greater London,68
462,Orrell,53.5408,-2.7074,North West,Greater Manchester,82
463,Osterley Park,51.4883,-0.3497,South East,Greater London,24
464,Oswaldtwistle,53.742,-2.4051,North West,Lancashire,158
465,Otley,53.9056,-1.6903,Yorkshire & Humber,West Yorkshire,59
466,Oundle,52.4798,-0.4711,East Midlands,Northamptonshire,26
467,Oxford Youth Hostel,51.7629,-1.2295,South East,Oxfordshire,76
468,Park Bridge,53.5199,-2.0868,North West,Greater Manchester,158
469,Patterdale Youth Hostel,54.5315,-2.9283,North West,Cumbria,150
470,Pavilion Gardens Buxton,53.25,-1.9197,East Midlands,Derbyshire,320
471,Peel Green,53.4745,-2.3806,North West,Greater Manchester,22
472,Pemberton,53.5417,-2.6797,North West,Greater Manchester,61
473,Penarth,51.4384,-3.1722,Wales,Vale of Glamorgan,49
474,Pendennis Youth Hostel,50.1478,-5.0475,South West,Cornwall,54
475,Penygroes,53.0543,-4.2824,Wales,Gwynedd,111
476,Fivemiletown,54.3773,-7.3169,Northern Ireland,County Tyrone,109
477,Westenhanger,51.092,1.0317,South East,Kent,68
478,Forde Abbey,50.8402,-2.9073,South West,Dorset,81
479,Forncett End,52.4981,1.1564,Eastern England,Norfolk,55
480,Framlingham,52.2217,1.3439,Eastern England,Suffolk,27
481,Freshwater,50.6802,-1.5217,South East,Isle of Wight,11
482,Fulham,51.4748,-0.2071,South East,Greater London,22
483,Fullbrook,52.5674,-1.9753,West Midlands,West Midlands Conurbation,119
484,Fulwood,53.3668,-1.5362,Yorkshire & Humber,South Yorkshire,213
485,Garthamlock,55.8747,-4.1639,Western Scotland,Glasgow,100
486,Gatehouse Of Fleet,54.8824,-4.1829,Scottish Border,Dumfries and Galloway,10
487,Pickerells,51.7504,0.2791,Eastern England,Essex,59
488,Pitagowan,56.7702,-3.9483,Central Scotland,Perth and Kinross,214
489,Platt Lane,52.9224,-2.7236,West Midlands,Shropshire,99
490,Polesden Lacey,51.2568,-0.3787,South East,Surrey,123
491,Pontarddulais,51.7119,-4.0359,Wales,Swansea,17
492,Pontycymer,51.6122,-3.5829,Wales,Bridgend,160
493,Poolstock,53.5338,-2.6412,North West,Greater Manchester,29
494,Poppit Sands Youth Hostel,52.106,-4.7081,Wales,Pembrokeshire,65
495,Port Erin,54.0847,-4.7573,North West,none,16
496,Portglenone,54.8736,-6.4686,Northern Ireland,County Antrim,32
497,Porth Swtan / Church Bay,53.3664,-4.5601,Wales,Isle of Anglesey,0
498,Porthcawl,51.4786,-3.7039,Wales,Bridgend,10
499,Yardley,52.4704,-1.8044,West Midlands,West Midlands Conurbation,121
500,Yarmouth Racecourse,52.6316,1.7387,Eastern England,Norfolk,2
501,Yate,51.5412,-2.413,South West,South Gloucestershire,81
502,Yoxall,52.767,-1.7912,West Midlands,Staffordshire,67
503,Hampstead,51.56,-0.178,South East,Greater London,137
504,Abbots Bromley,52.8177,-1.8807,West Midlands,Staffordshire,110
505,Aberdovey,52.5437,-4.0449,Wales,Gwynedd,6
506,Abergele,53.2841,-3.5801,Wales,Conwy,16
507,Aberglasney Gardens,51.8766,-4.0612,Wales,Carmarthenshire,45
508,A'Chailleach (Monadh Liath Region),57.1087,-4.1776,Northern Scottish Highlands,Highland,930
509,Ackers Trust Ski Centre,52.4583,-1.8569,West Midlands,West Midlands Conurbation,112
510,Adventure Island,51.5322,0.7199,Eastern England,Southend-on-Sea,1
511,Adwick Le Street,53.5673,-1.1932,Yorkshire & Humber,South Yorkshire,28
512,Afan Forest,51.6374,-3.7012,Wales,Neath Port Talbot,224
513,Aintree Racecourse,53.474,-2.9339,North West,Merseyside,20
514,Alderman's Green,52.4487,-1.4706,West Midlands,West Midlands Conurbation,86
515,Alford (Lincolnshire),53.263,0.185,East Midlands,Lincolnshire,5
516,Alford Ski Centre,57.2294,-2.7063,Eastern Scottish Highlands,Aberdeenshire,163
517,Allesley,52.4241,-1.565,West Midlands,West Midlands Conurbation,110
518,Almondbury,53.6263,-1.7467,Yorkshire & Humber,West Yorkshire,121
519,Alston,54.8121,-2.4372,North West,Cumbria,299
520,Altrincham,53.3899,-2.3495,North West,Greater Manchester,42
521,Alverstoke,50.7843,-1.146,South East,Hampshire,1
522,Amble,55.3314,-1.5837,North East,Northumberland,11
523,Gildingwells,53.3629,-1.1621,Yorkshire & Humber,South Yorkshire,66
524,Gillingham F.C.,51.3848,0.5632,South East,Medway,34
525,Glas Tulaichean,56.8662,-3.5531,Central Scotland,Perth and Kinross,1051
526,Glen Nevis Youth Hostel,56.7969,-5.0699,Northern Scottish Highlands,Highland,44
527,Glendevon Youth Hostel,56.2273,-3.6251,Central Scotland,Perth and Kinross,271
528,Glendoll Lodge,56.8694,-3.1816,Central Scotland,Angus,258
529,Glyncorrwg Mountain Bike Centre,51.6761,-3.6339,Wales,Neath Port Talbot,330
530,Gosforth,55.0072,-1.6213,North East,Newcastle upon Tyne,65
531,Govan,55.8626,-4.3115,Western Scotland,Glasgow,2
532,Gowerton,51.6476,-4.0417,Wales,Swansea,18
533,Possil Park,55.8851,-4.2684,Western Scotland,Glasgow,70
534,Potternewton,53.8209,-1.5428,Yorkshire & Humber,West Yorkshire,100
535,Poyntington,50.9779,-2.4981,South West,Dorset,98
536,Prestatyn,53.3363,-3.4063,Wales,Denbighshire,4
537,Preston Manor,50.8404,-0.1379,South East,Brighton and Hove,54
538,Pyle,51.5284,-3.6919,Wales,Bridgend,38
539,Quantock Hills Youth Hostel,51.1635,-3.2225,South West,Somerset,204
540,Queensferry (Edinburgh),55.99,-3.3976,Scottish Border,Edinburgh,21
541,Quex House & Gardens,51.368,1.3214,South East,Kent,30
542,R.H.S. Garden Hyde Hall,51.6447,0.5682,Eastern England,Essex,21
543,Radlett,51.6864,-0.3158,Eastern England,Hertfordshire,70
544,Ramsey (Isle Of Man),54.3173,-4.3814,North West,none,27
545,Rangers F.C.,55.853,-4.3065,Western Scotland,Glasgow,10
546,Ranmoor,53.3716,-1.525,Yorkshire & Humber,South Yorkshire,197
547,Redditch,52.3086,-1.9395,West Midlands,Worcestershire,122
548,Rede,52.1733,0.6396,Eastern England,Suffolk,112
549,Rednal,52.3922,-1.9951,West Midlands,West Midlands Conurbation,181
550,An Riabhachan,57.3647,-5.0992,Northern Scottish Highlands,Highland,1129
551,An Socach (Glen Ey),56.9055,-3.51,Eastern Scottish Highlands,Aberdeenshire,944
552,An Socach (Loch Mullardoch),57.3508,-5.1563,Northern Scottish Highlands,Highland,1069
553,Ancoats,53.4849,-2.2172,North West,Greater Manchester,50
554,Gosport & Stokes Bay Golf Club,50.778,-1.1425,South East,Hampshire,1
555,Aonach Mor,56.8122,-4.9575,Northern Scottish Highlands,Highland,1219
556,Arbourthorne,53.365,-1.4433,Yorkshire & Humber,South Yorkshire,150
557,Ardchattan Gardens,56.4648,-5.2885,Western Scotland,Argyll and Bute,27
558,Ardkinglas Woodland Garden,56.2522,-4.9313,Western Scotland,Argyll and Bute,137
559,Ardress House (Nt),54.4417,-6.5843,Northern Ireland,County Armagh,18
560,Arisaig,56.91,-5.8419,Northern Scottish Highlands,Highland,16
561,Armadale,55.8978,-3.7008,Scottish Border,West Lothian,179
562,Armadale Pier,57.0647,-5.8939,Northern Scottish Highlands,Highland,8
563,Arundel,50.8547,-0.5536,South East,West Sussex,18
564,Ashton-In-Makerfield,53.4867,-2.6412,North West,Greater Manchester,51
565,Aspull,53.568,-2.5869,North West,Greater Manchester,127
566,Aston Villa F.C.,52.5095,-1.8838,West Midlands,West Midlands Conurbation,99
567,Atterton,52.584,-1.4811,East Midlands,Leicestershire,88
568,Attleborough,52.5177,1.0173,Eastern England,Norfolk,38
569,Auchinleck,55.4734,-4.2973,Western Scotland,East Ayrshire,161
570,Aughnacloy,54.4132,-6.9738,Northern Ireland,County Tyrone,51
571,Auskerry Sound,59.0513,-2.5946,Orkney and Shetland,Orkney Islands,0
572,Aviemore,57.1946,-3.8224,Northern Scottish Highlands,Highland,210
573,Aviemore Youth Hostel,57.1809,-3.8276,Northern Scottish Highlands,Highland,206
574,Avon Ski Centre,51.326,-2.8093,South West,Somerset,87
575,Awliscombe,50.8095,-3.2261,South West,Devon,116
576,Great Ayton,54.4909,-1.1386,Yorkshire & Humber,North Yorkshire,87
577,Great Yarmouth,52.5979,1.7299,Eastern England,Norfolk,1
578,Greenhill,53.3283,-1.4792,Yorkshire & Humber,South Yorkshire,184
579,Grinton Lodge Youth Hostel,54.374,-1.9256,Yorkshire & Humber,North Yorkshire,262
580,Guisborough,54.5361,-1.0479,North East,Redcar and Cleveland,95
581,Guist,52.7908,0.9669,Eastern England,Norfolk,38
582,Guy L. Wilson Daffodil Garden,55.1445,-6.6688,Northern Ireland,County Londonderry,15
583,Gwennap Mining District,50.2475,-5.1806,South West,Cornwall,78
584,Haden Cross,52.4735,-2.0569,West Midlands,West Midlands Conurbation,135
585,Hadleigh (Suffolk),52.0447,0.9544,Eastern England,Suffolk,20
586,Haldon,50.656,-3.5871,South West,Devon,220
587,Halesowen,52.4495,-2.0491,West Midlands,West Midlands Conurbation,120
588,Halkirk,58.5144,-3.4902,Northern Scottish Highlands,Highland,40
589,Hall Place Garden (Leigh),51.1955,0.2094,South East,Kent,38
590,Rhenigidale Youth Hostel,57.9242,-6.6797,Northern Scottish Highlands,Na h-Eileanan Siar,42
591,Rhymney,51.7591,-3.2841,Wales,Caerphilly,280
592,Rickmansworth,51.6383,-0.4726,Eastern England,Hertfordshire,47
593,City Of Coventry Stadium,52.44811,-1.49562,West Midlands,West Midlands Conurbation,94
594,Ringwood,50.8477,-1.7834,South East,Hampshire,20
595,Risca,51.6108,-3.0985,Wales,Caerphilly,65
596,Rishton,53.7683,-2.4222,North West,Lancashire,140
597,Roundhay,53.831,-1.4961,Yorkshire & Humber,West Yorkshire,93
598,Royal Botanic Garden Edinburgh,55.9661,-3.2116,Scottish Border,Edinburgh,23
599,Royal Botanic Gardens Kew,51.4743,-0.3009,South East,Greater London,2
600,Royton,53.5669,-2.1199,North West,Greater Manchester,160
601,Ruadh-Stac Mor,57.5939,-5.4284,Northern Scottish Highlands,Highland,1010
602,Westhoughton,53.5487,-2.5245,North West,Greater Manchester,100
603,Whichford,52.009,-1.5401,West Midlands,Warwickshire,134
604,Whiston,53.409,-1.3179,Yorkshire & Humber,South Yorkshire,69
605,Whitehead,54.7529,-5.718,Northern Ireland,County Antrim,47
606,Whittlesey,52.5592,-0.1252,Eastern England,Cambridgeshire,4
607,Willen,52.0626,-0.7189,South East,Milton Keynes,63
608,Aysgarth Falls Youth Hostel,54.2913,-1.9756,Yorkshire & Humber,North Yorkshire,187
609,Bacup,53.7069,-2.1998,North West,Lancashire,269
610,Badby Youth Hostel,52.2218,-1.1791,East Midlands,Northamptonshire,141
611,Badsey,52.0836,-1.8923,West Midlands,Worcestershire,37
612,Bagendon,51.7598,-1.9838,South West,Gloucestershire,152
613,Baguley,53.3991,-2.2754,North West,Greater Manchester,38
614,Bakewell Youth Hostel,53.2166,-1.6805,East Midlands,Derbyshire,161
615,Ball Green,53.0723,-2.1599,West Midlands,Staffordshire,182
616,Ballaheannagh,54.2225,-4.4395,North West,none,155
617,Ballater Ski Slope,57.0539,-3.0424,Eastern Scottish Highlands,Aberdeenshire,218
618,Ballinluig,56.6555,-3.657,Central Scotland,Perth and Kinross,144
619,Ballygrant,55.8182,-6.1598,Western Scotland,Argyll and Bute,58
620,Ballymoney,55.0716,-6.508,Northern Ireland,County Antrim,43
621,Bamford,53.6105,-2.2055,North West,Greater Manchester,142
622,Banstead,51.3217,-0.2035,South East,Surrey,160
623,Bardsley,53.5118,-2.1071,North West,Greater Manchester,130
624,Bargoed,51.6845,-3.2284,Wales,Caerphilly,199
625,Barguillean Garden,56.4113,-5.2706,Western Scotland,Argyll and Bute,100
626,Barnard Castle,54.5451,-1.9222,North East,Durham,165
627,Barnsley Fc,53.5544,-1.4649,Yorkshire & Humber,South Yorkshire,78
628,Barra (Traigh Mh√≤r) Airport,57.0232,-7.4442,Northern Scottish Highlands,Na h-Eileanan Siar,0
629,Barton Upon Irwell,53.4757,-2.354,North West,Greater Manchester,21
630,Beaconsfield,51.602,-0.6427,South East,Buckinghamshire,100
631,Bedale,54.2899,-1.5899,Yorkshire & Humber,North Yorkshire,39
632,Bedgebury National Pinetum,51.0759,0.4583,South East,Kent,69
633,Haremere Hall,51.0114,0.4564,South East,East Sussex,19
634,Harlequin,52.9487,-1.0102,East Midlands,Nottinghamshire,45
635,Harmer Hill,52.7931,-2.7545,West Midlands,Shropshire,113
636,Harrow,51.5801,-0.3404,South East,Greater London,64
637,Hattersley,53.4498,-2.0357,North West,Greater Manchester,162
638,Haytor Vale,50.5819,-3.7394,South West,Devon,310
639,Haywards Heath,50.9985,-0.1048,South East,West Sussex,74
640,Heart Of Midlothian F.C.,55.9408,-3.2253,Scottish Border,Edinburgh,48
641,Heath,51.5127,-3.188,Wales,Cardiff,39
642,Heatherton Activity Park Tenby,51.69,-4.764,Wales,Pembrokeshire,66
643,Heaton (Tyne & Wear),54.984,-1.582,North East,Newcastle upon Tyne,38
644,Hebden Bridge,53.7431,-2.0115,Yorkshire & Humber,West Yorkshire,105
645,Heckfield,51.3392,-0.9586,South East,Hampshire,74
646,Heckington,52.9833,-0.2974,East Midlands,Lincolnshire,12
647,Heckmondwike,53.7068,-1.6692,Yorkshire & Humber,West Yorkshire,79
648,Hellidon,52.2185,-1.2432,East Midlands,Northamptonshire,173
649,Helmingham Hall,52.1718,1.1987,Eastern England,Suffolk,51
650,Helston,50.1011,-5.2739,South West,Cornwall,32
651,Rustington,50.8025,-0.511,South East,West Sussex,1
652,Ryton,54.9764,-1.7642,North East,Gateshead,54
653,St Asaph,53.2577,-3.4424,Wales,Denbighshire,20
654,St David's Youth Hostel,51.9011,-5.2866,Wales,Pembrokeshire,57
655,St Leonards,50.8546,0.5613,South East,East Sussex,28
656,St Mawes,50.158,-5.0135,South West,Cornwall,3
657,St Mellons Golf Club,51.5339,-3.0779,Wales,Newport,10
658,Salutation Garden Sandwich,51.2735,1.3488,South East,Kent,1
659,Sanday Airfield,59.25,-2.5746,Orkney and Shetland,Orkney Islands,14
660,Sandown Youth Hostel,50.6619,-1.1472,South East,Isle of Wight,4
661,Sandwell,52.504,-1.9714,West Midlands,West Midlands Conurbation,157
662,Sawston,52.1207,0.1734,Eastern England,Cambridgeshire,23
663,Scarborough Youth Hostel,54.3042,-0.4247,Yorkshire & Humber,North Yorkshire,43
664,Schiehallion,56.6652,-4.0955,Central Scotland,Perth and Kinross,1083
665,Scrabo Golf Club,54.5734,-5.7054,Northern Ireland,County Down,7
666,Seacroft,53.8205,-1.4711,Yorkshire & Humber,West Yorkshire,68
667,Beech Lane,52.4721,-1.9706,West Midlands,West Midlands Conurbation,188
668,Beinn A' Chochuil,56.4478,-5.0666,Western Scotland,Argyll and Bute,980
669,Beinn Bhuidhe,56.326,-4.9067,Western Scotland,Argyll and Bute,948
670,Beinn Chabhair,56.3252,-4.6457,Central Scotland,Stirling,931
671,Beinn Dearg (Perth & Kinross),56.8787,-3.8816,Central Scotland,Perth and Kinross,1008
672,Beinn Dorain,56.5061,-4.7227,Western Scotland,Argyll and Bute,1074
673,Beinn Fhada,57.221,-5.2825,Northern Scottish Highlands,Highland,1032
674,Beinn Fhionnlaidh (Argyll & Bute),56.5998,-5.1116,Western Scotland,Argyll and Bute,959
675,Beinn Mheadhoin,57.0981,-3.6093,Eastern Scottish Highlands,Moray,1182
676,Beinn Na Lap,56.7896,-4.6543,Northern Scottish Highlands,Highland,937
677,Bell Green,52.434,-1.4702,West Midlands,West Midlands Conurbation,80
678,Belle Isle,53.7632,-1.5234,Yorkshire & Humber,West Yorkshire,72
679,Belper River Gardens,53.0319,-1.4828,East Midlands,Derbyshire,66
680,Ben Lawers,56.5467,-4.2186,Central Scotland,Perth and Kinross,1214
681,Ben Lui,56.3969,-4.8092,Western Scotland,Stirling,1130
682,Ben Nevis,56.7965,-5.0013,Northern Scottish Highlands,Highland,1344
683,Ben Starav,56.5365,-5.0492,Northern Scottish Highlands,Argyll and Bute,1078
684,Ben Vorlich (Argyll & Bute),56.2746,-4.7515,Western Scotland,Argyll and Bute,943
685,Benington Lordship,51.8956,-0.1198,Eastern England,Hertfordshire,112
686,Hereford Racecourse,52.0705,-2.7274,West Midlands,Herefordshire,58
687,Herodsfoot,50.4155,-4.5112,South West,Cornwall,50
688,Heyside,53.5658,-2.0992,North West,Greater Manchester,182
689,High Bentham,54.1173,-2.5065,Yorkshire & Humber,North Yorkshire,99
690,Highter's Heath,52.4073,-1.8891,West Midlands,West Midlands Conurbation,155
691,Hillingdon,51.5334,-0.4527,South East,Greater London,51
692,Hodnet Hall Gardens,52.8506,-2.5806,West Midlands,Shropshire,98
693,Holbrooks,52.4457,-1.5197,West Midlands,West Midlands Conurbation,106
694,Holker Hall,54.1893,-2.9859,North West,Cumbria,10
695,Holland House Youth Hostel,51.502,-0.1998,South East,Greater London,24
696,Holmbury St. Mary Youth Hostel,51.1954,-0.4215,South East,Surrey,160
697,Holywood,54.6428,-5.8238,Northern Ireland,County Down,25
698,Honiton,50.799,-3.1874,South West,Devon,111
699,Hopetoun House,55.995,-3.4618,Scottish Border,West Lothian,35
700,Sedgefield Racecourse,54.6425,-1.4648,North East,Durham,103
701,Selly Oak,52.4424,-1.9362,West Midlands,West Midlands Conurbation,140
702,Sevenoaks,51.2719,0.1925,South East,Kent,145
703,Sewerby Hall & Gardens,54.1056,-0.1585,Yorkshire & Humber,East Riding of Yorkshire,42
704,Sezincote House,51.9786,-1.7491,South West,Gloucestershire,170
705,Sgorr Dhonuil,56.6497,-5.1992,Northern Scottish Highlands,Highland,1001
706,Sgorr Ruadh,57.503,-5.4091,Northern Scottish Highlands,Highland,960
707,Sgurr A' Chaorachain,57.454,-5.1919,Northern Scottish Highlands,Highland,1053
708,Sgurr A' Ghreadaidh,57.2272,-6.2336,Northern Scottish Highlands,Highland,973
709,Sgurr Fhuar-Thuill,57.4495,-4.9412,Northern Scottish Highlands,Highland,1049
710,Sgurr Na Lapaich,57.3705,-5.0583,Northern Scottish Highlands,Highland,1150
711,Sgurr Nan Coireachan (Glen Finnan),56.9347,-5.4482,Northern Scottish Highlands,Highland,956
712,Sgurr Nan Eag,57.1964,-6.2084,Northern Scottish Highlands,Highland,924
713,Sheffield,53.3809,-1.4686,Yorkshire & Humber,South Yorkshire,84
714,Benthall Hall,52.6209,-2.5015,West Midlands,Shropshire,177
715,Benwell,54.9739,-1.6613,North East,Newcastle upon Tyne,97
716,Bethersden,51.1288,0.7557,South East,Kent,40
717,Bicton Park Gardens,50.6689,-3.3173,South West,Devon,32
718,Bidean Nam Bian,56.6437,-5.0321,Northern Scottish Highlands,Highland,1150
719,Bigbury Bay,50.2651,-3.9244,South West,Devon,0
720,Bigbury-On-Sea,50.2799,-3.8906,South West,Devon,0
721,Binnein Beag,56.7672,-4.9081,Northern Scottish Highlands,Highland,940
722,Binnein Mor,56.7557,-4.9218,Northern Scottish Highlands,Highland,1128
723,Birchencliffe,53.662,-1.8249,Yorkshire & Humber,West Yorkshire,210
724,Birkenhead,53.3898,-3.0216,North West,Merseyside,8
725,Birks,53.7356,-1.602,Yorkshire & Humber,West Yorkshire,160
726,Birsay Bay,59.13,-3.3171,Orkney and Shetland,Orkney Islands,0
727,Birstall,52.6791,-1.1165,East Midlands,Leicestershire,55
728,Bishop's Itchington,52.2149,-1.4335,West Midlands,Warwickshire,110
729,Bishop's Stortford,51.8686,0.1602,Eastern England,Hertfordshire,71
730,Bisley,51.7519,-2.1384,South West,Gloucestershire,231
731,Bla Bheinn,57.2207,-6.0905,Northern Scottish Highlands,Highland,928
732,Blackley,53.5207,-2.2131,North West,Greater Manchester,56
733,Blaenavon,51.7768,-3.0934,Wales,Torfaen,349
734,Horsforth,53.842,-1.6346,Yorkshire & Humber,West Yorkshire,142
735,Hounslow,51.4655,-0.3605,South East,Greater London,20
736,Hunstanton Youth Hostel,52.9419,0.4955,Eastern England,Norfolk,32
737,Huntingdon Racecourse,52.3348,-0.2279,Eastern England,Cambridgeshire,13
738,Idle,53.8366,-1.7349,Yorkshire & Humber,West Yorkshire,169
739,Iford,50.7398,-1.8103,South West,Bournemouth,3
740,Ingatestone,51.6733,0.3915,Eastern England,Essex,70
741,Inveraray Youth Hostel,56.2307,-5.0777,Western Scotland,Argyll and Bute,17
742,Islay Airport,55.6824,-6.2563,Western Scotland,Argyll and Bute,10
743,Isle Of Man Airport,54.0865,-4.6268,North West,none,17
744,Sherwood Forest Amusement Park,53.1977,-1.068,East Midlands,Nottinghamshire,75
745,Shettleston,55.8514,-4.1592,Western Scotland,Glasgow,33
746,Shieldhall,55.8724,-4.3531,Western Scotland,Glasgow,1
747,Silent Valley,54.1242,-6.007,Northern Ireland,County Down,163
748,Silksworth,54.8673,-1.4138,North East,Sunderland,79
749,Skiddaw House Youth Hostel,54.6516,-3.1054,North West,Cumbria,483
750,Slack Side,53.7713,-1.7971,Yorkshire & Humber,West Yorkshire,296
751,Small Heath,52.4738,-1.8542,West Midlands,West Midlands Conurbation,129
752,Smallbridge,53.6324,-2.133,North West,Greater Manchester,149
753,Snowdome Tamworth,52.6263,-1.6908,West Midlands,Staffordshire,59
754,Somerleyton Hall & Gardens,52.5215,1.6779,Eastern England,Suffolk,19
755,Sound Of Arisaig,56.8562,-5.8693,Northern Scottish Highlands,Highland,0
756,Blakenham Woodland Garden,52.0994,1.0863,Eastern England,Suffolk,36
757,Blandford Forum,50.857,-2.1684,South West,Dorset,35
758,Blaxhall Youth Hostel,52.1601,1.4615,Eastern England,Suffolk,17
759,Bletchley,52.0018,-0.7486,South East,Milton Keynes,88
760,Bloomfield,52.5355,-2.0729,West Midlands,West Midlands Conurbation,145
761,Blossomfield,52.4029,-1.8061,West Midlands,West Midlands Conurbation,141
762,Bloxworth,50.7488,-2.1633,South West,Dorset,51
763,Bodnant Gardens,53.2327,-3.7955,Wales,Conwy,59
764,Boldon,54.9446,-1.4393,North East,South Tyneside,43
765,Bolton Wanderers F.C.,53.5807,-2.5339,North West,Greater Manchester,109
766,Bonnyrigg,55.8749,-3.1049,Scottish Border,Midlothian Council,103
767,Boroughbridge,54.0961,-1.3928,Yorkshire & Humber,North Yorkshire,14
768,Borth,52.4884,-4.05,Wales,Ceredigion,1
769,Borth Youth Hostel,52.4963,-4.0496,Wales,Ceredigion,2
770,Boston Deeps,53.0329,0.2982,East Midlands,Lincolnshire,0
771,Boswinger Youth Hostel,50.2328,-4.8133,South West,Cornwall,40
772,Durham Botanic Garden,54.7606,-1.5698,North East,Durham,56
773,Bothwell,55.8062,-4.0714,Western Scotland,South Lanarkshire,54
774,Boughton Street,51.2967,0.9493,South East,Kent,30
775,Bourne,52.7683,-0.3769,East Midlands,Lincolnshire,11
776,Bowgreen,53.378,-2.3655,North West,Greater Manchester,60
777,Brackenbottom,54.1453,-2.2807,Yorkshire & Humber,North Yorkshire,260
778,Bradeley,53.0594,-2.1736,West Midlands,Stoke-on-Trent,141
779,Bradgate,53.4329,-1.3743,Yorkshire & Humber,South Yorkshire,44
780,Braemar Youth Hostel,57.0006,-3.3868,Eastern Scottish Highlands,Aberdeenshire,355
781,Braeriach,57.0749,-3.7288,Northern Scottish Highlands,Aberdeenshire,1296
782,Braidfauld,55.8428,-4.188,Western Scotland,Glasgow,19
783,Branksome,50.7265,-1.9201,South West,Poole,42
784,Branthwaite,54.6107,-3.4582,North West,Cumbria,90
785,Braunstone,52.6177,-1.1764,East Midlands,Leicestershire,81
786,Kershader Youth Hostel,58.084,-6.5125,Northern Scottish Highlands,Na h-Eileanan Siar,33
787,Kilbirnie,55.7554,-4.6847,Western Scotland,North Ayrshire,54
788,Killyleagh,54.4011,-5.6526,Northern Ireland,County Down,16
789,Kingshurst,52.4913,-1.7473,West Midlands,West Midlands Conurbation,89
790,Kingstanding,52.5447,-1.8822,West Midlands,West Midlands Conurbation,135
791,Kintore,57.2334,-2.3445,Eastern Scottish Highlands,Aberdeenshire,46
792,Sound Of Rum,56.9343,-6.243,Northern Scottish Highlands,Highland,0
793,Sound Of Sleat,57.0826,-5.8064,Northern Scottish Highlands,Highland,0
794,South Brent,50.4294,-3.8362,South West,Devon,119
795,South Cave,53.7679,-0.5992,Yorkshire & Humber,East Riding of Yorkshire,29
796,South Molton,51.0164,-3.8309,South West,Devon,129
797,South Tees Motorsports Park,54.5768,-1.1891,North East,Redcar and Cleveland,7
798,South Wheatley,53.3613,-0.8529,East Midlands,Nottinghamshire,20
799,Southborough,51.1576,0.262,South East,Kent,115
800,Southbourne,50.7243,-1.7942,South West,Bournemouth,22
801,Southport,53.6455,-3.0087,North West,Merseyside,4
802,Southwark,51.504,-0.1052,South East,Greater London,6
803,Speke,53.3408,-2.8406,North West,Merseyside,29
804,Sron A' Choire Ghairbh,57.0074,-4.9287,Northern Scottish Highlands,Highland,935
805,St Catherine's Bay,59.1199,-2.6326,Orkney and Shetland,Orkney Islands,0
806,Standon,51.0383,-1.3876,South East,Hampshire,64
807,Stanley Green,50.7355,-1.9798,South West,Poole,7
808,Stanway House And Fountain,51.9905,-1.9041,South West,Gloucestershire,147
809,Breighton,53.7966,-0.9225,Yorkshire & Humber,East Riding of Yorkshire,4
810,Brentwood Leisure Park,51.5927,0.2935,Eastern England,Essex,81
811,Bridge Of Weir,55.8566,-4.5764,Western Scotland,Renfrewshire,50
812,Bridgend (Fife),56.2963,-2.9782,Central Scotland,Fife,77
813,Brierley Hill,52.4818,-2.1189,West Midlands,West Midlands Conurbation,151
814,Brighton Racecourse,50.8319,-0.1011,South East,Brighton and Hove,109
815,Bristol Filton Airport,51.5177,-2.5802,South West,South Gloucestershire,57
816,Bristol International Airport,51.3829,-2.714,South West,North Somerset,185
817,Bristol Youth Hostel,51.4466,-2.5934,South West,Bristol,0
818,Briton Ferry,51.6317,-3.8231,Wales,Neath Port Talbot,7
819,Broadhembury,50.8337,-3.2741,South West,Devon,145
820,Brodick Castle Garden,55.5934,-5.1662,Western Scotland,North Ayrshire,27
821,Bromborough,53.3346,-2.9766,North West,Merseyside,29
822,Bromford,52.5099,-1.8326,West Midlands,West Midlands Conurbation,92
823,Bromley (Greater London),51.4056,0.0148,South East,Greater London,65
824,Bromley Ski Centre,51.405,0.1278,South East,Greater London,60
825,Brook Cottage Gardens (Alkerton),52.0864,-1.4558,South East,Oxfordshire,172
826,Broughton Mills,54.3054,-3.1948,North West,Cumbria,41
827,Bruera,53.1395,-2.8411,North West,Cheshire West and Chester,17
828,Brundish,52.277,1.3306,Eastern England,Suffolk,45
829,Bulwell,53.0022,-1.1998,East Midlands,Nottingham,47
830,Bungay,52.4551,1.4457,Eastern England,Suffolk,5
831,Kirkwall Airport,58.9585,-2.8939,Orkney and Shetland,Orkney Islands,11
832,Kirroughtree Mountain Bike Trail Centre,54.9507,-4.4233,Scottish Border,Dumfries and Galloway,39
833,Knighton (Leicester),52.6025,-1.1171,East Midlands,Leicester,68
834,Knockhill Motor Racing Circuit,56.1255,-3.4985,Central Scotland,Fife,232
835,Kyle Of Tongue,58.4913,-4.4374,Northern Scottish Highlands,Highland,0
836,Laggan Wolftrax Mountain Bike Trail Centre,57.0129,-4.2918,Northern Scottish Highlands,Highland,268
837,Lairg,58.0223,-4.401,Northern Scottish Highlands,Highland,89
838,Lambeth,51.4922,-0.1178,South East,Greater London,25
839,Lambhill,55.8962,-4.2843,Western Scotland,Glasgow,65
840,Lambourn,51.5075,-1.5301,South East,West Berkshire,128
841,Lanark,55.6739,-3.7808,Western Scotland,South Lanarkshire,194
842,Land's End Youth Hostel,50.1134,-5.6913,South West,Cornwall,102
843,Langtoft,52.6965,-0.3381,East Midlands,Lincolnshire,6
844,Lanhydrock,50.4402,-4.691,South West,Cornwall,76
845,Lapal,52.4513,-2.0231,West Midlands,West Midlands Conurbation,187
846,Largs,55.7934,-4.866,Western Scotland,North Ayrshire,6
847,Laughton,53.4665,-0.7251,East Midlands,Lincolnshire,7
848,Laurencekirk,56.8314,-2.471,Eastern Scottish Highlands,Aberdeenshire,81
849,Laxey,54.2283,-4.4035,North West,none,103
850,Layer Marney Tower,51.8206,0.7916,Eastern England,Essex,30
851,Stob A' Choire Odhair,56.5694,-4.8339,Western Scotland,Argyll and Bute,947
852,Stob Choire Raineach,56.6525,-4.95,Northern Scottish Highlands,Highland,925
853,Stob Na Broige,56.6311,-4.9519,Northern Scottish Highlands,Highland,956
854,Stob Poite Coire Ardair,56.9644,-4.5841,Northern Scottish Highlands,Highland,1053
855,Stokesley,54.4718,-1.1837,Yorkshire & Humber,North Yorkshire,66
856,Storrington,50.9178,-0.4528,South East,West Sussex,40
857,Strachan,57.02,-2.5397,Eastern Scottish Highlands,Aberdeenshire,80
858,Studley Royal,54.1158,-1.5765,Yorkshire & Humber,North Yorkshire,103
859,Sturminster Newton,50.9247,-2.3033,South West,Dorset,60
860,Carbis Bay Beach (Station) (Beach),50.1984,-5.4624,South West,Cornwall,0
861,St Ives - Porthmeor (Beach),50.2158,-5.4823,South West,Cornwall,0
862,Mounts Bay - Penzance (Beach),50.1263,-5.5181,South West,Cornwall,0
863,Kennack Sands (Beach),50.0051,-5.1614,South West,Cornwall,0
864,Pentewan Sands (Beach),50.2884,-4.7821,South West,Cornwall,0
865,Downderry (Beach),50.3609,-4.348,South West,Cornwall,0
866,Ilfracombe - Tunnels Beach (Beach),51.2098,-4.1286,South West,Devon,0
867,Hope Cove (Beach),50.2438,-3.8595,South West,Devon,0
868,Oban Airport,56.4634,-5.3994,Western Scotland,Argyll and Bute,6
869,Bowling,53.7813,-1.7305,Yorkshire & Humber,West Yorkshire,178
870,Shaldon (Beach),50.5402,-3.5033,South West,Devon,0
871,Dawlish - Coryton Cove (Beach),50.5752,-3.4685,South West,Devon,0
872,Dawlish Warren (Beach),50.6019,-3.435,South West,Devon,0
873,Church Ope Cove (Beach),50.5383,-2.428,South West,Dorset,0
874,Magilligan,55.1604,-6.9492,Northern Ireland,County Londonderry,6
875,Ringstead Bay (Beach),50.6311,-2.3554,South West,Dorset,0
876,Poole - Canford Cliffs (Beach),50.703,-1.916,South West,Poole,0
877,Bournemouth - Pier (Beach),50.7157,-1.8755,South West,Bournemouth,0
878,Ventnor (Beach),50.5931,-1.2084,South East,Isle of Wight,0
879,Old Portsmouth Beach (Victoria Pier) (Beach),50.7901,-1.108,South East,Portsmouth,0
880,Eastney (Beach),50.7849,-1.0469,South East,Portsmouth,0
881,Hayling Island - West Of Eastoke (Beach),50.781,-0.9671,South East,Hampshire,0
882,Felpham (Beach),50.7876,-0.6409,South East,West Sussex,0
883,Saltdean (Beach),50.8002,-0.0415,South East,East Sussex,0
884,Brighton (Beach),50.8179,-0.1296,South East,Brighton and Hove,0
885,Eastbourne (Aurn),50.7617,0.2843,South East,East Sussex,28
886,Joss Bay (Beach),51.3794,1.4464,South East,Kent,0
887,Westbrook Bay (Beach),51.3856,1.3632,South East,Kent,0
888,Cromer (Beach),52.9328,1.3002,Eastern England,Norfolk,0
889,Ingoldmells South (Beach),53.1912,0.355,East Midlands,Lincolnshire,0
890,Skipsea (Beach),53.9902,-0.2049,Yorkshire & Humber,East Riding of Yorkshire,0
891,Whitby (Beach),54.4921,-0.6241,Yorkshire & Humber,North Yorkshire,0
892,Marsden (Beach),54.9778,-1.378,North East,South Tyneside,0
893,Tynemouth - King Edwards Bay (Beach),55.019,-1.4199,North East,North Tyneside,0
894,Tynemouth - Long Sands North (Beach),55.0297,-1.4293,North East,North Tyneside,0
895,Formby (Beach),53.5478,-3.1027,North West,Merseyside,0
896,Prestatyn Barkby Beach (Beach),53.3456,-3.4033,Wales,Denbighshire,0
897,Kinmel Bay (Sandy Cove) (Beach),53.314,-3.5241,Wales,Conwy,0
898,Old Colwyn (Beach),53.2941,-3.6996,Wales,Conwy,0
899,Porth Tywyn Mawr (Sandy Beach),53.336,-4.5702,Wales,Isle of Anglesey,0
900,Rhoscolyn - Silver Bay (Beach),53.2451,-4.5894,Wales,Isle of Anglesey,0
901,Llanfaelog,53.2154,-4.5041,Wales,Isle of Anglesey,0
902,Aberporth (Beach),52.1349,-4.5473,Wales,Ceredigion,0
903,Penarth (Beach),51.4398,-3.1648,Wales,Vale of Glamorgan,0
904,Plemont (Beach),49.2567,-2.2343,South West,Jersey,0
905,Dornoch - Burn Mouth (Beach),57.8567,-4.0182,Northern Scottish Highlands,Highland,0
906,Hopeman East (Beach),57.7107,-3.434,Eastern Scottish Highlands,Moray,0
907,Millport (Beach),55.7531,-4.9254,Western Scotland,North Ayrshire,0
908,Rosehearty (Beach),57.6983,-2.1111,Eastern Scottish Highlands,Aberdeenshire,0
909,Easthaven (Beach),56.5158,-2.665,Eastern Scottish Highlands,Angus,0
910,Elie (Woodhaven And Ruby Bay) (Beach),56.1897,-2.826,Central Scotland,Fife,0
911,"Whitmore Bay, Barry (Beach)",51.3901,-3.2745,Wales,Vale of Glamorgan,0
912,Southerndown (Beach),51.4448,-3.6067,Wales,Vale of Glamorgan,0
913,Porthcawl - Sandy Bay (Beach),51.4774,-3.6953,Wales,Bridgend,0
914,Pembrey Beach - Llanelli (Cefn Sidan) (Beach),51.6738,-4.3136,Wales,Carmarthenshire,0
915,Tenby - South (Beach),51.6665,-4.7029,Wales,Pembrokeshire,0
916,Whitesands (Beach),51.8953,-5.2965,Wales,Pembrokeshire,0
917,Blue Lagoon - Abereiddy Bay (Beach),51.9367,-5.2063,Wales,Pembrokeshire,0
918,Minehead - Terminus (Beach),51.2074,-3.4635,South West,Somerset,0
919,Slievemartin,54.0942,-6.1628,Northern Ireland,County Down,485
920,St Helens,50.697,-1.1123,South East,Isle of Wight,28
921,Steeple,54.4908,-3.2979,North West,Cumbria,841
922,Templepatrick,54.7029,-6.0971,Northern Ireland,County Antrim,56
923,The Old Man Of Coniston,54.3705,-3.1201,North West,Cumbria,803
924,Tryfan,53.1147,-3.9963,Wales,Conwy,917
925,Viewing Hill,54.6931,-2.3276,North East,Durham,649
926,Waun Fach,51.9624,-3.1419,Wales,Powys,811
927,Wether Fell,54.2757,-2.1939,Yorkshire & Humber,North Yorkshire,614
928,Yarlside,54.3812,-2.4839,North West,Cumbria,639
929,Allen Crags,54.4662,-3.1778,North West,Cumbria,785
930,Argyll,56.4291,-5.239,Western Scotland,Argyll and Bute,22
931,Blackcraig Hill,55.3331,-4.1321,Western Scotland,East Ayrshire,700
932,Blackhope Scar,55.7235,-3.0905,Scottish Border,Scottish Borders,651
933,Blacklorg Hill,55.3138,-4.1213,Western Scotland,Dumfries and Galloway,681
934,Bloodybush Edge,55.4229,-2.1545,North East,Northumberland,610
935,Buckden Pike,54.2047,-2.0601,Yorkshire & Humber,North Yorkshire,702
936,Cadair Idris,52.6993,-3.9076,Wales,Gwynedd,893
937,Carn Liath,57.2282,-3.237,Eastern Scottish Highlands,Aberdeenshire,792
938,Carnedd Dafydd,53.1475,-3.9996,Wales,Conwy,1044
939,Chimney Rock,54.1643,-5.9124,Northern Ireland,County Down,655
940,Cockayne Ridge,54.4002,-1.0643,Yorkshire & Humber,North Yorkshire,430
941,Craig Y Ffynnon,52.7598,-3.7241,Wales,Gwynedd,780
942,Craigellachie,57.4906,-3.1847,Eastern Scottish Highlands,Moray,103
943,Crinkle Crags,54.4378,-3.1575,North West,Cumbria,815
944,Crockbrack,54.8042,-6.8869,Northern Ireland,County Londonderry,528
945,Cwmystwyth,52.35817,-3.80198,Wales,Ceredigion,301
946,Dale Head,54.5271,-3.2009,North West,Cumbria,753
947,Dollywagon Pike,54.5086,-3.0098,North West,Cumbria,858
948,Earncraig Hill,55.295,-3.6176,Scottish Border,Dumfries and Galloway,611
949,Fontmell Magna,50.95049,-2.18403,South West,Dorset,90
950,Great Rhos,52.2667,-3.1986,Wales,Powys,660
951,Hart Fell,55.4081,-3.4,Scottish Border,Dumfries and Galloway,808
952,Hay Bluff,52.0225,-3.1014,Wales,Powys,677
953,High Raise,54.4758,-3.1099,North West,Cumbria,762
954,High Willhays,50.6847,-4.01,South West,Devon,621
955,Hudderstone,55.5282,-3.5494,Western Scotland,South Lanarkshire,626
956,Kinlochbervie,58.4578,-5.0469,Northern Scottish Highlands,Highland,21
957,Levington,52.0118,1.266,Eastern England,Suffolk,22
958,Little Fell,54.5953,-2.3389,North West,Cumbria,748
959,Loadpot Hill,54.5553,-2.8399,North West,Cumbria,670
960,Lochcraig Head,55.4454,-3.3168,Scottish Border,Scottish Borders,801
961,Lochinver,58.1495,-5.2403,Northern Scottish Highlands,Highland,5
962,Lynch Tor,50.6069,-4.0266,South West,Devon,517
963,Melmerby Fell,54.736,-2.5411,North West,Cumbria,709
964,Mullaghcloga,54.8058,-7.1317,Northern Ireland,County Tyrone,636
965,Pen Y Garn,52.3782,-3.7654,Wales,Ceredigion,610
966,Pillar,54.4973,-3.2798,North West,Cumbria,892
967,Pykestone Hill,55.568,-3.3116,Scottish Border,Scottish Borders,737
968,Queensberry,55.2816,-3.5917,Scottish Border,Dumfries and Galloway,697
969,Horton In Ribblesdale,54.1446,-2.2922,Yorkshire & Humber,North Yorkshire,228
970,Semerwater,54.2805,-2.1243,Yorkshire & Humber,North Yorkshire,262
971,Robin Hoods Bay,54.4343,-0.535,Yorkshire & Humber,North Yorkshire,49
972,Haytor,50.5803,-3.7551,South West,Devon,457
973,Merrivale,50.5573,-4.0523,South West,Devon,294
974,Hound Tor (Manaton),50.5972,-3.7778,South West,Devon,377
975,Burrator Reservoir,50.5001,-4.0375,South West,Devon,226
976,Tarr Steps,51.0771,-3.6176,South West,Somerset,208
977,Haddon Hill,51.0476,-3.4817,South West,Somerset,347
978,Dunster,51.1846,-3.4443,South West,Somerset,34
979,Bleaklow,53.4599,-1.8625,East Midlands,Derbyshire,636
980,Littleton Down,50.9257,-0.6572,South East,West Sussex,178
981,Chanctonbury Hill,50.8956,-0.3931,South East,West Sussex,248
982,Spelga Dam,54.1747,-6.0618,Northern Ireland,County Down,334
983,Luss,56.1015,-4.6389,Western Scotland,Argyll and Bute,8
984,Pont Nedd Fechan (Waterfalls),51.7561,-3.5943,Wales,Neath Port Talbot,64
985,Big Pit National Coal Museum,51.7719,-3.1062,Wales,Torfaen,392
986,Blaenavon Ironworks Heritage Centre,51.773,-3.0875,Wales,Torfaen,311
987,Donard Park Newcastle,54.2026,-5.8994,Northern Ireland,County Down,63
988,Carew Castle And Tidal Mill,51.6985,-4.8305,Wales,Pembrokeshire,2
989,Skomer Island,51.7379,-5.2972,Wales,Pembrokeshire,53
990,Oriel Y Parc,51.8804,-5.2607,Wales,Pembrokeshire,52
991,Ffestiniog,52.9603,-3.9311,Wales,Gwynedd,201
992,Foel Drygarn,51.9702,-4.6833,Wales,Pembrokeshire,343
993,Scolton Manor,51.8606,-4.9204,Wales,Pembrokeshire,73
994,Wasdale Head,54.468,-3.2559,North West,Cumbria,83
995,Arncliffe,54.1422,-2.1059,Yorkshire & Humber,North Yorkshire,213
996,Ardtalnaig,56.52809,-4.11049,Central Scotland,Perth and Kinross,130
997,Rhinog Fawr,52.84171,-3.99583,Wales,Gwynedd,734
998,Woodingdean,50.837,-0.06,South East,Brighton and Hove,180
999,Dane End,51.8749,0.0582,Northern Scottish Highlands,none,72
1000,Sheffield Airport,53.3944,-1.3886,Yorkshire & Humber,South Yorkshire,63
1001,Aviemore,57.206,-3.827,Northern Scottish Highlands,Highland,228
1002,Tiree,56.497,-6.887,Western Scotland,Argyll and Bute,9
1003,East Malling,51.283,0.45,South East,Kent,33
1004,Fyvie Castle,57.45,-2.383,Eastern Scottish Highlands,Aberdeenshire,55
1005,Sutton Bonington,52.833,-1.25,East Midlands,Nottinghamshire,48
1006,Culdrose,50.085,-5.257,South West,Cornwall,78
1007,Lizard Lighthouse,49.96,-5.202,South West,Cornwall,55
1008,Dunkeswell Aerodrome,50.86,-3.239,South West,Devon,252
1009,Bournemouth Airport,50.779,-1.835,South West,Dorset,10
1010,Belmullet,54.233,-10.001,Republic of Ireland,none,9
1011,Liscombe,51.087,-3.608,South West,Somerset,348
1012,Larkhill,51.201,-1.805,South West,Wiltshire,132
1013,Boscombe Down,51.161,-1.754,South West,Wiltshire,126
1014,Charlwood,51.15,-0.2333,South East,Surrey,67
1015,Leuchars,56.377,-2.862,Central Scotland,Fife,10
1016,Tynemouth,55.018,-1.415,North East,North Tyneside,33
1017,Fylingdales,54.362,-0.673,Yorkshire & Humber,North Yorkshire,262
1018,Valley,53.252,-4.537,Wales,Isle of Anglesey,10
1019,Bingley Samos,53.811,-1.865,Yorkshire & Humber,West Yorkshire,262
1020,Church Fenton,53.836,-1.197,Yorkshire & Humber,North Yorkshire,8
1021,Cranwell,53.031,-0.502,East Midlands,Lincolnshire,62
1022,Wainfleet,53.088,0.274,East Midlands,Lincolnshire,3
1023,Shawbury,52.794,-2.663,West Midlands,Shropshire,72
1024,Coventry,52.4065,-1.5182,West Midlands,West Midlands Conurbation,79
1025,Tunbridge Wells,51.1338,0.2651,South East,Kent,113
1026,Aberdeen,57.1498,-2.0927,Eastern Scottish Highlands,Aberdeen,19
1027,Rye,50.9492,0.7389,South East,East Sussex,5
1028,Andover,51.2066,-1.4798,South East,Hampshire,56
1029,Skipton,53.9634,-2.0104,Yorkshire & Humber,North Yorkshire,123
1030,Blackpool,53.8211,-3.0541,North West,Blackpool,12
1031,Brighton,50.822,-0.1356,South East,Brighton and Hove,8
1032,Chelmsford,51.7345,0.4778,Eastern England,Essex,21
1033,Gravesend,51.4414,0.3724,South East,Kent,18
1034,Hartlepool,54.6916,-1.2113,North East,Hartlepool,12
1035,Arbroath,56.5592,-2.59,Central Scotland,Angus,15
1036,Welshpool,52.66,-3.1451,Wales,Powys,80
1037,Maldon,51.7314,0.6731,Eastern England,Essex,34
1038,Garston,51.68,-0.38,Eastern England,Hertfordshire,64
1039,Girvan,55.2401,-4.853,Western Scotland,South Ayrshire,9
1040,New Holland,53.7,-0.37,Yorkshire & Humber,North Lincolnshire,2
1041,Penrith,54.664,-2.7513,North West,Cumbria,131
1042,Battle,50.9169,0.4853,South East,East Sussex,81
1043,Blyth,55.1269,-1.5087,North East,Northumberland,2
1044,Bodmin,50.4681,-4.714,South West,Cornwall,96
1045,Leith,55.9751,-3.1648,Scottish Border,Edinburgh,4
1046,Littlehampton,50.8105,-0.5371,South East,West Sussex,3
1047,Shotton,53.2131,-3.0418,Wales,Flintshire,10
1048,Thirsk,54.2337,-1.3398,Yorkshire & Humber,North Yorkshire,30
1049,Bishop Auckland,54.6637,-1.6772,North East,Durham,106
1050,Buxton,53.2588,-1.9134,East Midlands,Derbyshire,299
1051,Gainsborough,53.4003,-0.7729,East Midlands,Lincolnshire,4
1052,Huntingdon,52.3311,-0.1809,Eastern England,Cambridgeshire,11
1053,Sedbergh,54.3235,-2.5267,North West,Cumbria,129
1054,Durness,58.567,-4.75,Northern Scottish Highlands,Highland,26
1055,Port Glasgow,55.9323,-4.6785,Western Scotland,Inverclyde,18
1056,Ramsey (Cambridgeshire),52.4464,-0.1049,Eastern England,Cambridgeshire,5
1057,Irvine,55.6173,-4.6679,Western Scotland,North Ayrshire,11
1058,Kingsnorth,51.43,0.6,South East,Medway,1
1059,Croydon,51.3775,-0.0933,South East,Greater London,55
1060,Alfreton,53.0972,-1.3807,East Midlands,Derbyshire,133
1061,Alton Towers Leisure Park,52.9869,-1.8891,West Midlands,Staffordshire,170
1062,Biggleswade,52.0857,-0.2626,Eastern England,Central Bedfordshire,31
1063,Cannock,52.6868,-2.025,West Midlands,Staffordshire,137
1064,Galashiels,55.6237,-2.813,Scottish Border,Scottish Borders,161
1065,Glenrothes,56.2009,-3.1584,Central Scotland,Fife,66
1066,Harrogate,53.9919,-1.5403,Yorkshire & Humber,North Yorkshire,115
1067,Moffat,55.3352,-3.4389,Scottish Border,Dumfries and Galloway,115
1068,Pontefract,53.6915,-1.3071,Yorkshire & Humber,West Yorkshire,60
1069,Ross-On-Wye,51.9141,-2.5811,West Midlands,Herefordshire,41
1070,Solihull,52.4115,-1.7762,West Midlands,West Midlands Conurbation,130
1071,Telford,52.6781,-2.4439,West Midlands,Telford and Wrekin,154
1072,Wakefield,53.6831,-1.5044,Yorkshire & Humber,West Yorkshire,39
1073,Greenhead Youth Hostel,54.9828,-2.5379,North East,Northumberland,164
1074,Hay-On-Wye,52.0759,-3.1239,Wales,Powys,87
1075,Stow-On-The-Wold,51.931,-1.725,South West,Gloucestershire,223
1076,Lynmouth,51.23,-3.83,South West,Devon,100
1077,Lee Valley White Water Centre,51.695,-0.021,Eastern England,Hertfordshire,20
1078,High Mowthorpe,54.105,-0.641,Yorkshire & Humber,North Yorkshire,175
1079,Brooms Barn,52.26,0.569,Eastern England,Suffolk,75
1080,Londonolympic Park South,51.534,-0.009,South East,Greater London,5
1081,Suckley,52.1615,-2.4083,West Midlands,Worcestershire,80
1082,Sumburgh Roost,59.834,-1.3003,Orkney and Shetland,Shetland Islands,0
1083,Sutton,51.3617,-0.1923,South East,Greater London,53
1084,Sutton Leach,53.4238,-2.7089,North West,Merseyside,46
1085,Swadlincote,52.771,-1.5535,East Midlands,Derbyshire,109
1086,Swalwell,54.9584,-1.6847,North East,Gateshead,1
1087,Swanage,50.6078,-1.9594,South West,Dorset,17
1088,Swanage Youth Hostel,50.6043,-1.9678,South West,Dorset,75
1089,Swinton (South Yorkshire),53.4883,-1.316,Yorkshire & Humber,South Yorkshire,43
1090,Tandragee,54.3514,-6.4105,Northern Ireland,County Armagh,38
1091,Tapeley Park,51.0401,-4.1677,South West,Devon,68
1092,Templeton Bridge,50.9171,-3.5969,South West,Devon,166
1093,Ten Mile Bank,52.5474,0.3626,Eastern England,Norfolk,1
1094,Tetchill,52.8871,-2.9044,West Midlands,Shropshire,91
1095,Teviot Water Gardens,55.5375,-2.4642,Scottish Border,Scottish Borders,56
1096,Thatcham,51.4054,-1.265,South East,West Berkshire,77
1097,The Oval Surrey C.C.C.,51.4846,-0.1164,South East,Greater London,1
1098,The County Ground Northamptonshire C.C.C.,52.2447,-0.8699,East Midlands,Northamptonshire,91
1099,Burnage,53.4279,-2.2011,North West,Greater Manchester,48
1100,Burnham Market,52.9449,0.7286,Eastern England,Norfolk,8
1101,Burnham-On-Sea,51.2397,-2.9926,South West,Somerset,4
1102,Busby,55.7786,-4.2777,Western Scotland,East Renfrewshire,90
1103,Bushbury,52.6187,-2.1155,West Midlands,West Midlands Conurbation,133
1104,Harpur Hill,53.2466,-1.907,East Midlands,Derbyshire,308
1105,Caerphilly,51.5784,-3.2168,Wales,Caerphilly,80
1106,Cairn Of Claise,56.8955,-3.339,Eastern Scottish Highlands,Aberdeenshire,1064
1107,Cairn Toul,57.0516,-3.711,Eastern Scottish Highlands,Aberdeenshire,1291
1108,Caldicot,51.5911,-2.7495,Wales,Monmouthshire,10
1109,Camborne,50.2122,-5.2937,South West,Cornwall,103
1110,Cambridge University Botanic Garden,52.1937,0.1268,Eastern England,Cambridgeshire,11
1111,Camperdown,55.0425,-1.5758,North East,North Tyneside,67
1112,Canvey Island,51.5166,0.5801,Eastern England,Essex,2
1113,Capel-Y-Ffin Youth Hostel,51.9847,-3.0923,Wales,Powys,535
1114,Carbrook,53.4054,-1.4204,Yorkshire & Humber,South Yorkshire,34
1115,Cardiff,51.4812,-3.1778,Wales,Cardiff,11
1116,Cardiff City F.C.,51.4724,-3.2018,Wales,Cardiff,9
1117,Cardonald,55.8476,-4.3561,Western Scotland,Glasgow,20
1118,Carlisle Park (Morpeth),55.1631,-1.6889,North East,Northumberland,50
1119,Leek,53.1089,-2.0219,West Midlands,Staffordshire,168
1120,Leicester Forest East,52.6225,-1.2225,East Midlands,Leicestershire,101
1121,Leominster,52.2253,-2.7414,West Midlands,Herefordshire,84
1122,Letchworth Garden City,51.9792,-0.2208,Eastern England,Hertfordshire,77
1123,Leverton,53.0064,0.086,East Midlands,Lincolnshire,3
1124,Lifford,52.4204,-1.9164,West Midlands,West Midlands Conurbation,132
1125,Little Horton,53.784,-1.7835,Yorkshire & Humber,West Yorkshire,163
1126,Little Moreton Hall,53.1242,-2.245,North West,Cheshire East,100
1127,Little Weston,51.0296,-2.5454,South West,Somerset,45
1128,Llanberis,53.1178,-4.1263,Wales,Gwynedd,126
1129,Llandaff North,51.5053,-3.2253,Wales,Cardiff,22
1130,Llanddwyn (Newborough),53.1393,-4.3867,Wales,Isle of Anglesey,0
1131,Llandeilo,51.889,-3.9865,Wales,Carmarthenshire,28
1132,The Flambards Experience,50.0788,-5.2655,South West,Cornwall,34
1133,The Ford County Ground Essex C.C.C.,51.7334,0.4709,Eastern England,Essex,24
1134,The Point,54.067,-4.741,North West,none,0
1135,Hampshire C.C.C.,50.9233,-1.3255,South East,Hampshire,58
1136,Thurlby Youth Hostel,52.7354,-0.3704,East Midlands,Lincolnshire,11
1137,Thurnham Hall,53.9839,-2.8182,North West,Lancashire,20
1138,Thursford,52.865,0.9575,Eastern England,Norfolk,81
1139,Thuxton,52.6217,1.0018,Eastern England,Norfolk,43
1140,Tickhill,53.4319,-1.1118,Yorkshire & Humber,South Yorkshire,20
1141,Tiree Airport,56.4978,-6.8738,Western Scotland,Argyll and Bute,8
1142,Toll Creagach,57.3062,-5.0015,Northern Scottish Highlands,Highland,1054
1143,Tonbridge,51.1946,0.2773,South East,Kent,21
1144,Tonge Fold,53.5805,-2.3992,North West,Greater Manchester,83
1145,Top Of Hebers,53.5586,-2.1953,North West,Greater Manchester,108
1146,Carmyle,55.8315,-4.155,Western Scotland,Glasgow,22
1147,Carn An Fhidhleir,56.9384,-3.8009,Central Scotland,Highland,994
1148,Carn An T-Sagairt Mor,56.9433,-3.3013,Eastern Scottish Highlands,Aberdeenshire,1047
1149,Carn Dearg (939m),56.7625,-4.5873,Northern Scottish Highlands,Highland,939
1150,Carn Liath (Highland),56.9794,-4.5111,Northern Scottish Highlands,Highland,1006
1151,Carn Liath (Perth & Kinross),56.8073,-3.742,Central Scotland,Perth and Kinross,975
1152,Carn Mairg,56.6348,-4.1442,Central Scotland,Perth and Kinross,1042
1153,Carn Nan Gobhar (Glen Strathfarrar),57.4529,-4.8715,Northern Scottish Highlands,Highland,992
1154,Carnoustie Golf Links,56.4923,-2.7238,Central Scotland,Angus,3
1155,Carradale Garden,55.5838,-5.4807,Western Scotland,Argyll and Bute,3
1156,Castle Ashby,52.2258,-0.7353,East Midlands,Northamptonshire,78
1157,Castlehead,55.8364,-4.4374,Western Scotland,Renfrewshire,30
1158,Castleton Youth Hostel,53.3377,-1.7784,East Midlands,Derbyshire,312
1159,Castletown (Isle Of Man),54.0761,-4.6557,North West,none,15
1160,Cathkin,55.8064,-4.1984,Western Scotland,South Lanarkshire,115
1161,Catmore,51.519,-1.3465,South East,West Berkshire,177
1162,Chalfont St. Peter,51.6046,-0.5528,South East,Buckinghamshire,59
1163,Chapel Amble,50.5445,-4.8266,South West,Cornwall,11
1164,Chapel St. Leonards,53.2235,0.3387,East Midlands,Lincolnshire,4
1165,Chapel-En-Le-Frith,53.3254,-1.908,East Midlands,Derbyshire,218
1166,Charlbury,51.8741,-1.4783,South East,Oxfordshire,118
1167,Llanfyllin,52.7659,-3.2745,Wales,Powys,146
1168,Llangefni,53.2555,-4.3102,Wales,Isle of Anglesey,13
1169,Llangollen,52.9689,-3.1703,Wales,Denbighshire,85
1170,Llangorse Lake,51.9286,-3.2632,Wales,Powys,156
1171,Llantwit Major,51.4088,-3.484,Wales,Vale of Glamorgan,46
1172,Loch Mullardoch,57.3267,-5.0573,Northern Scottish Highlands,Highland,247
1173,Loch Torridon,57.5915,-5.7719,Northern Scottish Highlands,Highland,0
1174,London Ashford Airport,50.9516,0.9454,South East,Kent,2
1175,London Biggin Hill Airport,51.3264,0.0322,South East,Greater London,176
1176,Londonderry (West Midlands),52.4857,-1.9842,West Midlands,West Midlands Conurbation,185
1177,Long Sutton,52.789,0.1215,East Midlands,Lincolnshire,2
1178,Torosay Castle,56.4562,-5.6875,Western Scotland,Argyll and Bute,16
1179,Torridon Youth Hostel,57.5447,-5.5035,Northern Scottish Highlands,Highland,19
1180,Totley Rise,53.3184,-1.5205,Yorkshire & Humber,South Yorkshire,142
1181,Towcester Racecourse,52.1294,-0.9707,East Midlands,Northamptonshire,88
1182,Trowbridge,51.3192,-2.2075,South West,Wiltshire,38
1183,Tyersal,53.7884,-1.7159,Yorkshire & Humber,West Yorkshire,180
1184,Ulverston,54.195,-3.0913,North West,Cumbria,19
1185,Upper Stoke,52.4169,-1.4855,West Midlands,West Midlands Conurbation,89
1186,Upton Snodsbury,52.187,-2.0874,West Midlands,Worcestershire,47
1187,Utley,53.882,-1.9217,Yorkshire & Humber,West Yorkshire,122
1188,Ventnor,50.595,-1.2046,South East,Isle of Wight,38
1189,Chartwell,51.2445,0.09,South East,Kent,154
1190,Cheadle (Greater Manchester),53.3941,-2.2127,North West,Greater Manchester,41
1191,Cheadle Heath,53.4033,-2.1838,North West,Greater Manchester,50
1192,Chelmsley Wood,52.4747,-1.7205,West Midlands,West Midlands Conurbation,101
1193,Chelsea F.C.,51.4816,-0.1918,South East,Greater London,4
1194,Chessington World Of Adventures,51.3466,-0.3221,South East,Greater London,69
1195,Chesterton,53.0403,-2.2521,West Midlands,Staffordshire,160
1196,Chiddingstone Castle,51.1822,0.1418,South East,Kent,49
1197,Chillington,50.2727,-3.696,South West,Devon,34
1198,Chilwell,52.9121,-1.2401,East Midlands,Nottinghamshire,30
1199,Chippenham,51.4576,-2.1147,South West,Wiltshire,47
1200,Chipping Ongar,51.705,0.2458,Eastern England,Essex,45
1201,Chipping Sodbury,51.5347,-2.3896,South West,South Gloucestershire,103
1202,Chno Dearg,56.8282,-4.6578,Northern Scottish Highlands,Highland,1047
1203,Chorleywood,51.6552,-0.5146,Eastern England,Hertfordshire,106
1204,Chorlton-Cum-Hardy,53.4446,-2.2768,North West,Greater Manchester,26
1205,Church Enstone,51.9243,-1.4506,South East,Oxfordshire,135
1206,Cinderford,51.8249,-2.4996,South West,Gloucestershire,186
1207,City Of Derry Airport,55.0413,-7.1576,Northern Ireland,County Londonderry,1
1208,City Of London Youth Hostel,51.5103,-0.0969,South East,Greater London,1
1209,Clandon Park,51.2526,-0.5117,South East,Surrey,67
1210,Clay Cross,53.1635,-1.4133,East Midlands,Derbyshire,140
1211,Clayton (Greater Manchester),53.4845,-2.182,North West,Greater Manchester,73
1212,Cleadon,54.955,-1.3991,North East,South Tyneside,36
1213,Cleckheaton,53.7228,-1.706,Yorkshire & Humber,West Yorkshire,74
1214,Cleehill,52.3734,-2.6008,West Midlands,Shropshire,340
1215,Clifton (Greater Manchester),53.5297,-2.3439,North West,Greater Manchester,82
1216,Clifton (South Yorkshire),53.4307,-1.3507,Yorkshire & Humber,South Yorkshire,42
1217,Lostwithiel,50.4055,-4.6739,South West,Cornwall,48
1218,Lurgan,54.4639,-6.3356,Northern Ireland,County Armagh,45
1219,Luton Town F.C.,51.8848,-0.4291,Eastern England,Luton,110
1220,Lydney Park,51.7256,-2.544,South West,Gloucestershire,35
1221,Maltby,53.4224,-1.1996,Yorkshire & Humber,South Yorkshire,100
1222,Manchester City F.C.,53.4835,-2.2041,North West,Greater Manchester,52
1223,Manningham,53.8064,-1.7707,Yorkshire & Humber,West Yorkshire,147
1224,Manston,53.8093,-1.4477,Yorkshire & Humber,West Yorkshire,78
1225,Maol Chinn-Dearg,57.1258,-5.2505,Northern Scottish Highlands,Highland,981
1226,Walker,54.9745,-1.5518,North East,Newcastle upon Tyne,32
1227,Wallasey,53.4263,-3.0648,North West,Merseyside,12
1228,Walton-On-Thames,51.3875,-0.4152,South East,Surrey,13
1229,Wardley,53.5189,-2.3606,North West,Greater Manchester,80
1230,Waterlooville,50.8898,-1.0273,South East,Hampshire,51
1231,Wednesbury,52.5526,-2.0206,West Midlands,West Midlands Conurbation,137
1232,Wembley,51.5501,-0.3033,South East,Greater London,41
1233,Weoley Castle,52.4413,-1.9685,West Midlands,West Midlands Conurbation,154
1234,West Howe,50.7579,-1.9245,South West,Bournemouth,58
1235,West Kirby,53.3722,-3.183,North West,Merseyside,5
1236,Cliveden,51.5568,-0.6846,South East,Buckinghamshire,59
1237,Cockermouth Youth Hostel,54.6533,-3.3692,North West,Cumbria,59
1238,Codsall,52.6278,-2.1907,West Midlands,Staffordshire,120
1239,Colchester United F.C.,51.9219,0.9006,Eastern England,Essex,49
1240,Cold Ashby,52.3806,-1.0343,East Midlands,Northamptonshire,196
1241,Coleton Fishacre Garden,50.3479,-3.5318,South West,Devon,138
1242,Colgrave Sound,60.5606,-0.9468,Orkney and Shetland,Shetland Islands,0
1243,Colne,53.8554,-2.1755,North West,Lancashire,162
1244,Combe Sydenham Hall,51.1207,-3.3254,South West,Somerset,204
1245,Congleton,53.1626,-2.2175,North West,Cheshire East,96
1246,Conwy,53.2826,-3.8282,Wales,Conwy,14
1247,Cookstown,54.6454,-6.7455,Northern Ireland,County Londonderry,79
1248,Cornwood,50.4207,-3.9629,South West,Devon,124
1249,Corris Youth Hostel,52.6576,-3.8378,Wales,Gwynedd,146
1250,Corstorphine Hill,55.9536,-3.2753,Scottish Border,Edinburgh,124
1251,Corwen,52.9798,-3.3679,Wales,Denbighshire,138
1252,Cosham,50.8448,-1.0623,South East,Portsmouth,9
1253,Cottingley,53.83,-1.8193,Yorkshire & Humber,West Yorkshire,110
1254,Craig Tara (Ayr),55.4311,-4.6795,Western Scotland,South Ayrshire,16
1255,Craigavon,54.4474,-6.372,Northern Ireland,County Armagh,35
1256,Greenwich Park,51.477,0.004,South East,Greater London,47
1257,Marske-By-The-Sea,54.5918,-1.0181,North East,Redcar and Cleveland,20
1258,Mcarthur's Head Lighthouse,55.7636,-6.0465,Western Scotland,Argyll and Bute,45
1259,Meadowhall,53.4241,-1.4086,Yorkshire & Humber,South Yorkshire,74
1260,Meall Ghaordie,56.5256,-4.4139,Central Scotland,Stirling,1039
1261,Meir,52.9772,-2.1014,West Midlands,Stoke-on-Trent,198
1262,Melrose Youth Hostel,55.5996,-2.7057,Scottish Border,Scottish Borders,89
1263,Meltham,53.5921,-1.8498,Yorkshire & Humber,West Yorkshire,180
1264,Mere,51.09,-2.2656,South West,Wiltshire,104
1265,Mevagissey,50.2696,-4.7863,South West,Cornwall,5
1266,Cranleigh,51.1416,-0.4818,South East,Surrey,57
1267,Creag A' Mhaim,57.1216,-5.1657,Northern Scottish Highlands,Highland,947
1268,Creag Pitridh,56.8996,-4.4872,Northern Scottish Highlands,Highland,924
1269,Crediton,50.7921,-3.6503,South West,Devon,66
1270,Cressage,52.6335,-2.6033,West Midlands,Shropshire,50
1271,Crewkerne,50.8821,-2.7958,South West,Somerset,83
1272,Criccieth,52.9193,-4.2324,Wales,Gwynedd,21
1273,Crimonmogate,57.619,-1.9345,Eastern Scottish Highlands,Aberdeenshire,11
1274,Croftfoot,55.8127,-4.247,Western Scotland,Glasgow,57
1275,Cromarty Firth,57.6657,-4.2625,Northern Scottish Highlands,Highland,0
1276,Crowborough,51.0604,0.1675,South East,East Sussex,185
1277,Crownhill,50.4093,-4.1261,South West,Plymouth,85
1278,Cullompton,50.8548,-3.3904,South West,Devon,54
1279,Culzean Castle Garden,55.3495,-4.7906,Western Scotland,South Ayrshire,39
1280,Cumberland Stone,57.4801,-4.0849,Northern Scottish Highlands,Highland,150
1281,Cumbernauld,55.9457,-3.9912,Western Scotland,North Lanarkshire,142
1282,Cumnock,55.4535,-4.2645,Western Scotland,East Ayrshire,110
1283,Cumrew,54.8512,-2.7021,North West,Cumbria,197
1284,Cupar,56.3203,-3.0087,Central Scotland,Fife,20
1285,Curlew Green,52.236,1.4838,Eastern England,Suffolk,30
1286,Cwmbran,51.6459,-3.0253,Wales,Torfaen,66
1287,Dagenham,51.54,0.1478,South East,Greater London,10
1288,Daisy Bank,52.5743,-1.9354,West Midlands,West Midlands Conurbation,165
1289,Dalby Forest,54.2778,-0.6895,Yorkshire & Humber,North Yorkshire,120
1290,Dalmuir,55.9131,-4.4229,Western Scotland,West Dunbartonshire,23
1291,Dalrymple,55.3972,-4.5892,Western Scotland,East Ayrshire,51
1292,Midhopestones,53.4891,-1.6439,Yorkshire & Humber,South Yorkshire,238
1293,Midlothian Snowsports Centre,55.8812,-3.2168,Scottish Border,Midlothian Council,426
1294,Midsomer Norton,51.2848,-2.4846,South West,Bath and North East Somerset,90
1295,Miles Platting,53.4907,-2.2138,North West,Greater Manchester,56
1296,Milford On Sea,50.7252,-1.5883,South East,Hampshire,5
1297,Millport,55.7532,-4.928,Western Scotland,North Ayrshire,4
1298,Milnrow,53.6105,-2.1151,North West,Greater Manchester,151
1299,Milton Keynes,52.0382,-0.7555,South East,Milton Keynes,100
1300,Minterne Gardens,50.8301,-2.476,South West,Dorset,160
1301,Miserden Park Gardens,51.7777,-2.0855,South West,Gloucestershire,219
1302,Monifieth,56.4802,-2.8178,Central Scotland,Angus,9
1303,Montacute House,50.9509,-2.7108,South West,Somerset,50
1304,Moor Allerton,53.8482,-1.5299,Yorkshire & Humber,West Yorkshire,149
1305,Moorside (Nr Oldham),53.5642,-2.0709,North West,Greater Manchester,284
1306,Moorside (West Yorkshire),53.8178,-1.6273,Yorkshire & Humber,West Yorkshire,104
1307,Morchard Bishop,50.8548,-3.7482,South West,Devon,148
1308,Morley,53.7443,-1.5965,Yorkshire & Humber,West Yorkshire,141
1309,Motherwell F.C.,55.7783,-3.9789,Western Scotland,North Lanarkshire,83
1310,Mottisfont Abbey,51.044,-1.5344,South East,Hampshire,30
1311,Mount Keen,56.9699,-2.9709,Eastern Scottish Highlands,Aberdeenshire,939
1312,Mount Stewart (Nt),54.5506,-5.6053,Northern Ireland,County Down,0
1313,Dan Yr Ogof Ski Centre,51.8366,-3.6927,Wales,Powys,413
1314,Dane Bank,53.4556,-2.1418,North West,Greater Manchester,81
1315,Dartmeet,50.5423,-3.8741,South West,Devon,225
1316,Daubhill,53.5627,-2.4541,North West,Greater Manchester,140
1317,Dawyck Botanic Garden,55.6007,-3.3198,Scottish Border,Scottish Borders,216
1318,Deane,53.5708,-2.4717,North West,Greater Manchester,119
1319,Denbigh,53.1837,-3.4237,Wales,Denbighshire,97
1320,Denford,52.3742,-0.5445,East Midlands,Northamptonshire,56
1321,Denhead,57.5624,-1.9988,Eastern Scottish Highlands,Aberdeenshire,60
1322,Denton,53.455,-2.1132,North West,Greater Manchester,99
1323,Derby County F.C.,52.9141,-1.4415,East Midlands,Derby,41
1324,Desborough,52.4411,-0.821,East Midlands,Northamptonshire,123
1325,Dewar,55.7287,-3.0424,Scottish Border,Scottish Borders,408
1326,Didcot,51.6076,-1.2434,South East,Oxfordshire,67
1327,Didsbury,53.4138,-2.233,North West,Greater Manchester,30
1328,Dinosaur Adventure Park Norfolk,52.7149,1.119,Eastern England,Norfolk,31
1329,Dolgoch Youth Hostel,52.192,-3.7524,Wales,Ceredigion,424
1330,Dorrington,52.6226,-2.7737,West Midlands,Shropshire,111
1331,Down St. Mary,50.825,-3.7846,South West,Devon,141
1332,Downham Market,52.6063,0.3871,Eastern England,Norfolk,31
1333,Downpatrick,54.328,-5.7156,Northern Ireland,County Down,4
1334,Driffield,54.0058,-0.4417,Yorkshire & Humber,East Riding of Yorkshire,20
1335,Dronfield Woodhouse,53.3035,-1.5029,East Midlands,Derbyshire,213
1336,Droylsden,53.4805,-2.1473,North West,Greater Manchester,93
1337,Mullan Point,54.6695,-6.515,Northern Ireland,County Londonderry,10
1338,Muncaster Castle Gardens & Owl Centre,54.3541,-3.3851,North West,Cumbria,100
1339,Muscliff,50.761,-1.8642,South West,Bournemouth,14
1340,Musselburgh Racecourse,55.9473,-3.0389,Scottish Border,East Lothian,1
1341,Myddelton House,51.675,-0.0662,South East,Greater London,25
1342,National Memorial Arboretum Alrewas,52.7271,-1.7197,West Midlands,Staffordshire,50
1343,Needham Market,52.1552,1.0513,Eastern England,Suffolk,25
1344,Ness Gardens (Liverpool Uni Botanic Gardens),53.2698,-3.0436,North West,Cheshire West and Chester,34
1345,Ness Wood Country Park,54.9491,-7.1834,Northern Ireland,County Londonderry,112
1346,Netherton,53.4953,-2.9677,North West,Merseyside,13
1347,New Lanark Youth Hostel,55.6653,-3.7941,Western Scotland,South Lanarkshire,161
1348,New Mills,53.3616,-1.9993,East Midlands,Derbyshire,136
1349,New Parks,52.6465,-1.1781,East Midlands,Leicester,94
1350,Wincanton Racecourse,51.0652,-2.4212,South West,Somerset,108
1351,Witham,51.7974,0.6389,Eastern England,Essex,17
1352,Wolsingham,54.7324,-1.8824,North East,Durham,140
1353,Wolstanton,53.0297,-2.2147,West Midlands,Staffordshire,170
1354,Wolverhampton Wanderers F.C.,52.5938,-2.1326,West Midlands,West Midlands Conurbation,128
1355,Woodbridge,52.0951,1.3143,Eastern England,Suffolk,17
1356,Woodhouse Mill,53.366,-1.357,Yorkshire & Humber,South Yorkshire,41
1357,Woolley Bridge,53.4587,-1.9857,North West,Derbyshire,119
1358,Woolton,53.375,-2.8638,North West,Merseyside,58
1359,Wrangle,53.0373,0.1199,East Midlands,Lincolnshire,3
1360,Wrest Park,52.0028,-0.4066,Eastern England,Central Bedfordshire,52
1361,Wyke,53.7375,-1.7651,Yorkshire & Humber,West Yorkshire,169
1362,Drumry,55.9098,-4.4061,Western Scotland,West Dunbartonshire,42
1363,Dufftown,57.4438,-3.1269,Eastern Scottish Highlands,Moray,203
1364,Dukinfield,53.4785,-2.0931,North West,Greater Manchester,113
1365,Dunbeath,58.2509,-3.4316,Northern Scottish Highlands,Highland,10
1366,Duncombe Park Garden,54.2363,-1.0675,Yorkshire & Humber,North Yorkshire,78
1367,Dunfermline A.F.C.,56.0746,-3.4405,Central Scotland,Fife,96
1368,Dungannon,54.5046,-6.7705,Northern Ireland,County Tyrone,106
1369,Dunmurry,54.5513,-6.0034,Northern Ireland,County Antrim,26
1370,Dunoon,55.951,-4.925,Western Scotland,Argyll and Bute,7
1371,Dunstable,51.8852,-0.5188,Eastern England,Central Bedfordshire,144
1372,Durham,54.7751,-1.5833,North East,Durham,70
1373,Dyce,57.2036,-2.1886,Eastern Scottish Highlands,Aberdeen,55
1374,Dyrham Park,51.4801,-2.368,South West,South Gloucestershire,152
1375,Earl Soham,52.2214,1.2701,Eastern England,Suffolk,31
1376,Easingwold,54.1198,-1.1903,Yorkshire & Humber,North Yorkshire,31
1377,East Kilbride,55.7606,-4.1632,Western Scotland,South Lanarkshire,184
1378,East Lambrook Manor,50.9661,-2.7985,South West,Somerset,16
1379,East Loch Roag,58.2414,-6.8026,Northern Scottish Highlands,Na h-Eileanan Siar,0
1380,Eastleigh,50.9667,-1.3732,South East,Hampshire,15
1381,Eastwood (South Yorkshire),53.438,-1.3412,Yorkshire & Humber,South Yorkshire,32
1382,Eastwood (Southend-On-Sea),51.5685,0.6653,Eastern England,Southend-on-Sea,29
1383,Ecclesfield,53.4417,-1.465,Yorkshire & Humber,South Yorkshire,83
1384,Eday Youth Hostel,59.182,-2.7679,Orkney and Shetland,Orkney Islands,31
1385,Eddrachillis Bay,58.2627,-5.1882,Northern Scottish Highlands,Highland,0
1386,Edinburgh,55.9533,-3.1868,Scottish Border,Edinburgh,60
1387,Edinburgh Bruntsfield,55.9365,-3.1995,Scottish Border,Edinburgh,94
1388,Newtownstewart,54.7184,-7.3771,Northern Ireland,County Tyrone,51
1389,Northenden,53.4104,-2.258,North West,Greater Manchester,27
1390,Northfield (Kingston Upon Hull),53.73,-0.4208,Yorkshire & Humber,Kingston upon Hull,5
1391,Northfleet,51.4406,0.3386,South East,Kent,22
1392,Norton (South Yorkshire),53.3319,-1.4673,Yorkshire & Humber,South Yorkshire,195
1393,Oakfordbridge,50.9827,-3.545,South West,Devon,173
1394,Oakwood Leisure Park Cross Hands,51.7779,-4.7997,Wales,Pembrokeshire,89
1395,Edinburgh Haymarket,55.9475,-3.2174,Scottish Border,Edinburgh,59
1396,Edwalton,52.913,-1.115,East Midlands,Nottinghamshire,38
1397,Edzell Castle Pleasance,56.8137,-2.6783,Central Scotland,Angus,89
1398,Ellingstring Youth Hostel,54.2479,-1.7344,Yorkshire & Humber,North Yorkshire,230
1399,Ellisfield,51.2119,-1.0902,South East,Hampshire,196
1400,Emneth Hungate,52.6439,0.2377,Eastern England,Norfolk,2
1401,Emsworth,50.8476,-0.9364,South East,Hampshire,3
1402,Enard Bay,58.0928,-5.3357,Northern Scottish Highlands,Highland,0
1403,Esher,51.3686,-0.3635,South East,Surrey,38
1404,Eton,51.487,-0.6064,South East,Windsor and Maidenhead,20
1405,Ettingshall,52.5637,-2.0926,West Midlands,West Midlands Conurbation,143
1406,Evertown,55.0758,-3.0048,Scottish Border,Dumfries and Galloway,78
1407,Evesham,52.0918,-1.9453,West Midlands,Worcestershire,38
1408,Exbury Gardens,50.7932,-1.4,South East,Hampshire,11
1409,Exe Estuary,50.6625,-3.4484,South West,Devon,0
1410,Eye (Suffolk),52.3192,1.1479,Eastern England,Suffolk,30
1411,Faifley,55.9245,-4.3889,Western Scotland,West Dunbartonshire,79
1412,Fairmilehead,55.8989,-3.2016,Scottish Border,Edinburgh,158
1413,Falkirk F.C.,56.0057,-3.7519,Central Scotland,Falkirk,7
1414,Fan Fawr,51.8614,-3.5016,Wales,Powys,734
1415,Fareham,50.8556,-1.1817,South East,Hampshire,20
1416,Fasnacloich,56.581,-5.2226,Western Scotland,Argyll and Bute,41
1417,Faversham,51.3155,0.891,South East,Kent,9
1418,Fenay Bridge,53.6346,-1.7143,Yorkshire & Humber,West Yorkshire,158
1419,Oldmeldrum,57.3353,-2.3202,Eastern Scottish Highlands,Aberdeenshire,108
1420,Ormskirk,53.5687,-2.8837,North West,Lancashire,51
1421,Osmotherley Youth Hostel,54.3741,-1.2852,Yorkshire & Humber,North Yorkshire,208
1422,Overbeck's Garden Salcombe,50.2233,-3.794,South West,Devon,132
1423,Oxley,52.6126,-2.136,West Midlands,West Midlands Conurbation,120
1424,Painswick Rococo Gardens,51.792,-2.199,South West,Gloucestershire,160
1425,Pangbourne,51.4818,-1.0857,South East,West Berkshire,41
1426,Papa Westray Airfield,59.3529,-2.8989,Orkney and Shetland,Orkney Islands,23
1427,Parham House,50.915,-0.4869,South East,West Sussex,37
1428,Parkhead (Glasgow),55.8516,-4.1927,Western Scotland,Glasgow,28
1429,Partick,55.8742,-4.3092,Western Scotland,Glasgow,17
1430,Pashley Manor Gardens,51.0354,0.4322,South East,East Sussex,79
1431,Pateley Bridge,54.0848,-1.7537,Yorkshire & Humber,North Yorkshire,154
1432,Peckover House,52.6682,0.1463,Eastern England,Cambridgeshire,2
1433,Pedmore,52.4433,-2.131,West Midlands,West Midlands Conurbation,110
1434,Pembrey Ski Slope,51.6835,-4.3203,Wales,Carmarthenshire,8
1435,Pen Y Fan,51.8839,-3.4375,Wales,Powys,886
1436,Pendle Ski Club,53.8436,-2.3522,North West,Lancashire,272
1437,Penkridge,52.7248,-2.1149,West Midlands,Staffordshire,82
1438,Pennyghael,56.3639,-6.0188,Western Scotland,Argyll and Bute,17
1439,Penrhiw-Llan,52.0523,-4.377,Wales,Ceredigion,103
1440,Ferndown,50.8069,-1.8984,South West,Dorset,27
1441,Finlaystone House,55.9253,-4.6214,Western Scotland,Inverclyde,70
1442,Finnieston,55.8621,-4.2729,Western Scotland,Glasgow,20
1443,Fir Vale,53.4084,-1.454,Yorkshire & Humber,South Yorkshire,81
1444,Firpark Ski Slope,56.1582,-3.7361,Central Scotland,Clackmannanshire,48
1445,Fishponds,51.4812,-2.5223,South West,Bristol,66
1446,Fishpool,53.5855,-2.2929,North West,Greater Manchester,84
1447,Five Lane Ends,53.829,-1.7379,Yorkshire & Humber,West Yorkshire,191
1448,Flamingo Park Hastings,50.8549,0.5958,South East,East Sussex,1
1449,Fleet,51.2768,-0.8411,South East,Hampshire,78
1450,Flint,53.248,-3.1344,Wales,Flintshire,12
1451,Flixton,53.4415,-2.3839,North West,Greater Manchester,17
1452,Florence Court Forest Park,54.237,-7.7523,Northern Ireland,County Fermanagh,326
1453,Fochabers,57.6154,-3.0976,Eastern Scottish Highlands,Moray,31
1454,Foggbrook,53.3977,-2.1131,North West,Greater Manchester,81
1455,Folkestone Ski Centre,51.0856,1.1652,South East,Kent,35
1456,Forest Of Arden Golf & Country Club,52.4647,-1.6589,West Midlands,Warwickshire,101
1457,Forestburn Gate,55.2611,-1.897,North East,Northumberland,157
1458,Fortuneswell,50.5587,-2.4409,South West,Dorset,48
1459,Foula Airstrip,60.1231,-2.0522,Orkney and Shetland,Shetland Islands,45
1460,Foxbar,55.8216,-4.4668,Western Scotland,Renfrewshire,70
1461,Foxham,51.4943,-2.0374,South West,Wiltshire,56
1462,Frenchay,51.4983,-2.5234,South West,South Gloucestershire,50
1463,Frinton-On-Sea,51.83,1.249,Eastern England,Essex,21
1464,Frizinghall,53.8207,-1.7952,Yorkshire & Humber,West Yorkshire,174
1465,Gaisby,53.8277,-1.7573,Yorkshire & Humber,West Yorkshire,187
1466,Gatley,53.3926,-2.2432,North West,Greater Manchester,39
1467,Gayton,52.7431,0.5633,Eastern England,Norfolk,20
1468,Geal Charn (1132m),56.8382,-4.5058,Northern Scottish Highlands,Highland,1132
1469,Percy Main,54.9978,-1.4736,North East,North Tyneside,30
1470,Pettitts Animal Adventure Park Reedham,52.5767,1.5668,Eastern England,Norfolk,12
1471,Pettymuick,57.3096,-2.1611,Eastern Scottish Highlands,Aberdeenshire,89
1472,Petworth,50.9861,-0.6062,South East,West Sussex,60
1473,Pimhole,53.5901,-2.2824,North West,Greater Manchester,88
1474,Pitlochry,56.7045,-3.7283,Central Scotland,Perth and Kinross,110
1475,Pitlochry Youth Hostel,56.7069,-3.7216,Central Scotland,Perth and Kinross,140
1476,Pitsmoor,53.4023,-1.4569,Yorkshire & Humber,South Yorkshire,112
1477,Plas Newydd (Llangollen),52.9648,-3.161,Wales,Denbighshire,110
1478,Plymouth Ski & Snowboard Centre,50.4035,-4.0897,South West,Plymouth,33
1479,Plympton,50.3856,-4.0501,South West,Plymouth,14
1480,Pollokshaws,55.8191,-4.2998,Western Scotland,Glasgow,19
1481,Pollokshields,55.8456,-4.281,Western Scotland,Glasgow,19
1482,Polmonthill Ski Slope,55.9961,-3.6884,Central Scotland,Falkirk,40
1483,Ponteland,55.0498,-1.7383,North East,Northumberland,56
1484,Pont-Faen,51.9973,-3.4622,Wales,Powys,203
1485,Pontypridd,51.6004,-3.341,Wales,Rhondda Cynon Taff,62
1486,Poole Harbour,50.6961,-2.013,South West,Dorset,0
1487,Porlock,51.2086,-3.5938,South West,Somerset,36
1488,Port St. Mary,54.076,-4.7381,North West,none,39
1489,Portnalong,57.3275,-6.4014,Northern Scottish Highlands,Highland,50
1490,Yell Sound,60.5747,-1.2442,Orkney and Shetland,Shetland Islands,0
1491,Yeovil,50.9416,-2.632,South West,Somerset,53
1492,York Youth Hostel,53.9675,-1.095,Yorkshire & Humber,York,11
1493,Ystradgynlais,51.7791,-3.7604,Wales,Powys,99
1494,Eton Dorney,51.493,-0.664,South East,Buckinghamshire,20
1495,A' Bhuidheanach Bheag,56.8716,-4.1969,Central Scotland,Perth and Kinross,936
1496,Aberdeen F.C.(Pittodrie),57.1588,-2.0885,Eastern Scottish Highlands,Aberdeen,13
1497,Aberfoyle,56.1814,-4.3864,Central Scotland,Stirling,80
1498,Achmelvich Youth Hostel,58.1699,-5.3,Northern Scottish Highlands,Highland,9
1499,Acock's Green,52.4428,-1.8285,West Midlands,West Midlands Conurbation,132
1500,Acorn Bank Garden,54.6537,-2.5914,North West,Cumbria,161
1501,Adderley Green,53.0007,-2.118,West Midlands,Stoke-on-Trent,175
1502,Alderley Edge,53.3013,-2.2358,North West,Cheshire East,81
1503,Alness,57.6962,-4.2554,Northern Scottish Highlands,Highland,17
1504,Alsager,53.0951,-2.3032,North West,Cheshire East,91
1505,Alton,51.1501,-0.9749,South East,Hampshire,109
1506,Alva,56.153,-3.798,Central Scotland,Clackmannanshire,23
1507,Alyth,56.6259,-3.2254,Central Scotland,Perth and Kinross,104
1508,Am Basteir,57.2474,-6.2007,Northern Scottish Highlands,Highland,935
1509,Am Faochagach,57.7715,-4.8545,Northern Scottish Highlands,Highland,954
1510,Ammanford,51.7925,-3.9872,Wales,Carmarthenshire,38
1511,Ampney St. Peter,51.7118,-1.8771,South West,Gloucestershire,100
1512,An Coileachan,57.6686,-4.9476,Northern Scottish Highlands,Highland,923
1513,Gee Cross,53.4398,-2.0667,North West,Greater Manchester,150
1514,George Best Belfast City Airport,54.6249,-5.8704,Northern Ireland,County Antrim,4
1515,Giant's Causeway,55.239,-6.5061,Northern Ireland,County Antrim,80
1516,Gib Heath,52.4998,-1.9203,West Midlands,West Midlands Conurbation,139
1517,Giffnock,55.8001,-4.2937,Western Scotland,East Renfrewshire,50
1518,Gigmill,52.4487,-2.16,West Midlands,West Midlands Conurbation,81
1519,Gilmerton,55.9066,-3.1321,Scottish Border,Edinburgh,118
1520,Glas Maol,56.8722,-3.3696,Central Scotland,Angus,1068
1521,Glasgow Ski & Snowboard Centre,55.8427,-4.3161,Western Scotland,Glasgow,23
1522,Glastonbury,51.147,-2.7171,South West,Somerset,16
1523,Glen Parva,52.5848,-1.1604,East Midlands,Leicestershire,77
1524,Glenbrittle Youth Hostel,57.221,-6.2909,Northern Scottish Highlands,Highland,28
1525,Glenburn,55.8258,-4.4322,Western Scotland,Renfrewshire,40
1526,Glencoe Youth Hostel,56.6723,-5.0724,Northern Scottish Highlands,Highland,27
1527,Glendurgan Garden,50.1062,-5.1151,South West,Cornwall,40
1528,Gloucester Ski & Snowboard Centre,51.839,-2.226,South West,Gloucestershire,80
1529,Godley,53.4572,-2.0744,North West,Greater Manchester,110
1530,Golant Youth Hostel,50.3699,-4.6462,South West,Cornwall,66
1531,Golds Green,52.5395,-2.0197,West Midlands,West Midlands Conurbation,140
1532,Goltho House Gardens,53.2895,-0.3176,East Midlands,Lincolnshire,24
1533,Goodnestone Park,51.2458,1.2244,South East,Kent,51
1534,Goodyers End,52.4698,-1.4986,West Midlands,Warwickshire,107
1535,Gorse Hill,53.4562,-2.2905,North West,Greater Manchester,29
1536,Postbridge,50.5948,-3.9041,South West,Devon,356
1537,Pudsey,53.7953,-1.6612,Yorkshire & Humber,West Yorkshire,164
1538,Pulborough,50.9568,-0.5091,South East,West Sussex,7
1539,Radcliffe,53.5612,-2.3253,North West,Greater Manchester,72
1540,Radnor Park,55.9147,-4.4153,Western Scotland,West Dunbartonshire,40
1541,Ramsey Bay,54.3364,-4.367,North West,none,0
